country,city,name,year,week,latitude,longitude,counts_week,nodes,edges,k_avg,intersection_count,streets_per_node_avg,edge_length_total,edge_length_avg,street_length_total,street_length_avg,street_segments_count,circuity_avg,self_loop_proportion,bike_points,bus_stops,restaurants,shop_list,cycle_length,dist_to_greenspace,dist_to_bike,build_area,ndvi_mean,ndvi_std,dem_mean,dem_std,lst_mean,lst_std,pop_mean,pop_std,landuse_entropy,3_way_int_count,4_way_int_count
UK (Scotland),Aberdeen,"Site A Auchmill RD, Scatterburn",2022,38,57.17247,-2.15466,80,271,666,4.915129151,228,2.822878229,33796.851,50.74602252,18979.305,52.28458678,363,1.0426092,0,0,2,0,0,833.4294728,68,46,38488.94146,0.419484945,0.192145962,61.93385214,8.497625094,280.9675781,0.253194617,14.40259933,16.54120127,0.806902703,4,2
UK (Scotland),Aberdeen,Dyce Airport - Bus Turning Circle,2022,38,57.20533,-2.19309,95,209,461,4.411483254,140,2.397129187,21919.566,47.54786551,11236.784,47.41259072,237,1.086192024,0.004219409,6,1,1,0,501.4629164,68,0,68280.85362,0.289133795,0.138174585,58.93774319,1.57188812,282.5557091,0.535111293,3.729947297,5.711027669,0.744351567,2,1
UK (Scotland),Aberdeen,Farburn Bridge,2022,38,57.19976,-2.17253,102,149,367,4.926174497,115,2.624161074,17146.004,46.71935695,8745.902,47.02097849,186,1.053087157,0,0,0,0,0,27.56202554,47,110,57003.22808,0.412380893,0.200347752,40.31128405,3.069301544,281.1995053,0.882994802,0.430734721,0.43712919,0.851923932,0,0
UK (Scotland),Aberdeen,Maidencraig 3,2022,38,57.1489,-2.18312,123,340,878,5.164705882,274,2.75,39909.683,45.45521982,20082.661,45.23121847,444,1.061499023,0.002252252,0,0,0,0,2042.381509,155,146,25429.28492,0.464517704,0.138250995,107.4562738,6.764154895,281.5344901,0.593773591,1.812631856,6.072456898,0.82075225,3,1
UK (Scotland),Aberdeen,"Site B Heathryfold Circle, Scatterburn",2022,38,57.17083,-2.15638,130,352,899,5.107954545,304,2.840909091,40395.73,44.93407119,21891.789,45.99115336,476,1.047444965,0,0,6,0,1,1035.822036,137,153,41816.66901,0.487978145,0.188655759,75.92248062,6.393567993,281.2100166,0.214659285,19.27902915,23.15468254,0.705371036,4,0
UK (Scotland),Aberdeen,Dyce Drive 1- North of Wellheads Drive,2022,38,57.193371,-2.20114,132,262,650,4.961832061,214,2.812977099,29293.12,45.06633846,15998.944,45.71126857,350,1.114958405,0.014285714,0,2,0,0,2228.372485,154,138,93088.88306,0.332935399,0.19060667,79.24806202,1.367003217,281.6859859,0.740559727,0.068469991,0.009975545,0.660374247,2,0
UK (Scotland),Aberdeen,"Site C Manor Avenue, Scatterburn",2022,38,57.17024,-2.15438,154,351,872,4.968660969,290,2.777777778,42968.311,49.27558601,23419.507,50.14883726,467,1.04638412,0,0,7,0,0,984.4900204,68,0,51884.18279,0.445972844,0.180856914,74.93436293,6.692900685,281.236969,0.136252487,19.2934013,20.97055566,0.799816253,8,2
UK (Scotland),Aberdeen,Maidencraig 2,2022,38,57.14887,-2.18041,168,422,1105,5.236966825,344,2.755924171,46733.39,42.29266063,23597.922,42.21452952,559,1.080549336,0.003577818,0,0,0,0,1746.971476,122,35,41662.73559,0.455858411,0.148014793,104.6603053,4.776999272,281.3988312,0.478145922,12.23853811,14.12302024,0.880744,6,1
UK (Scotland),Aberdeen,A96 Auchmill Road (Westbound),2022,38,57.177235,-2.167846,187,335,805,4.805970149,264,2.665671642,34289.911,42.59616273,18692.668,42.97165057,435,1.087157394,0.002298851,0,2,1,1,646.1431577,66,66,49629.36244,0.372354131,0.1870518,50.09302326,8.731074204,280.9857679,0.496367502,10.51920249,13.44997543,0.921746594,10,3
UK (Scotland),Aberdeen,A956 Wellington Road (Northbound),2022,38,57.132984,-2.09483,205,338,781,4.621301775,268,2.656804734,36034.754,46.13924968,19633.644,46.30576415,424,1.079427811,0.004716981,0,6,0,1,1583.882512,68,156,55425.15972,0.233402374,0.21737089,19.1259542,7.63550453,281.0345681,0.829766987,26.29108683,16.61279216,0.899393448,9,3
UK (Scotland),Aberdeen,Ellon Road 2 - Denmore,2022,38,57.19491,-2.09098,214,150,307,4.093333333,88,2.22,13874.958,45.19530293,7292.263,45.29355901,161,1.121989255,0.01242236,0,2,0,0,1478.906852,0,122,30091.51673,0.429108715,0.196978256,34.44015444,3.381657537,281.129845,0.548129683,0.609996796,0.520579171,0.801608877,0,0
UK (Scotland),Aberdeen,Maidencraig 1,2022,38,57.14844,-2.18082,283,382,992,5.193717277,313,2.772251309,43226.155,43.57475302,21795.355,43.41704183,502,1.067069787,0.001992032,0,0,0,0,1632.655799,136,146,26931.80254,0.485388755,0.132303872,104.0116279,4.053405648,281.2229705,0.528790894,5.616677989,8.271094144,0.79808552,3,1
UK (Scotland),Aberdeen,A9119 Queens Road (Eastbound),2022,38,57.140945,-2.157131,307,321,810,5.046728972,274,2.84423676,44393.188,54.80640494,22769.717,53.0762634,429,1.045033274,0.004662005,0,2,0,0,1242.450278,71,154,87040.19722,0.385765475,0.148769047,85.75875486,2.79454917,282.3835878,0.284324655,12.74432246,3.611907632,0.768434785,12,0
UK (Scotland),Aberdeen,Parkway 1 East of Balgownie Road,2022,38,57.1896,-2.10142,325,323,705,4.365325077,221,2.414860681,36358.685,51.57260284,18936.357,51.31804065,369,1.116746811,0.013550136,0,0,0,0,755.5646149,35,118,116300.772,0.365138081,0.193544801,54.64864865,3.140854854,281.4244489,0.514756763,3.394479503,4.288447407,0.854218227,8,0
UK (Scotland),Aberdeen,Riverside Path,2022,38,57.12781,-2.11599,332,296,674,4.554054054,237,2.719594595,34652.866,51.41374777,18817.19,50.99509485,369,1.070965403,0,0,3,0,0,747.5376436,124,114,51628.23027,0.37285402,0.222039872,10.43023256,4.239553594,281.4886916,1.030824595,10.88298543,14.21157175,0.896088667,2,0
UK (Scotland),Aberdeen,A96 Great Northern Road (Westbound),2022,38,57.172293,-2.134824,346,221,512,4.633484163,175,2.746606335,30551.916,59.67171094,16837.965,60.56821942,278,1.057135871,0,0,2,2,0,741.8560069,110,141,48653.54379,0.459900662,0.15055861,47.83203125,12.19179049,280.5098796,0.343488174,22.22234599,17.77873071,0.835641564,6,3
UK (Scotland),Aberdeen,F&B Way nr Train Station,2022,38,57.20704,-2.19316,348,237,513,4.329113924,158,2.371308017,24668.801,48.08733138,12845.331,47.93033955,268,1.11026145,0.003731343,6,0,0,0,721.1231573,0,48,56484.48279,0.366063383,0.16845855,58.42084942,1.71651912,282.5244329,0.283588159,2.915156364,5.233860048,0.832148261,1,0
UK (Scotland),Aberdeen,Wellington Rd,2022,38,57.11453,-2.08951,349,245,548,4.473469388,194,2.697959184,29324.883,53.51256022,16599.382,53.20314744,312,1.120004967,0.009615385,0,2,1,0,0,70,109,70387.26707,0.346960015,0.218811932,80.05058366,2.927358148,281.5604206,0.426159466,6.433299672,7.290299065,0.81916274,4,0
UK (Scotland),Aberdeen,Seaton Park,2022,38,57.171677,-2.1083184,452,526,1409,5.357414449,445,2.802281369,50665.42,35.95842441,25703.219,36.2017169,710,1.066042947,0.001408451,0,3,0,0,1704.519633,135,118,18663.43187,0.474793817,0.17370965,23.27131783,8.771652667,280.1545205,0.862210728,11.47527186,15.75842492,0.816310437,5,0
UK (Scotland),Aberdeen,Auchmill Road,2022,38,57.17740334,-2.167250817,525,348,833,4.787356322,273,2.663793103,35654.896,42.8029964,19503.458,43.43754566,449,1.086275047,0.002227171,0,2,0,1,707.0672339,68,68,53932.03115,0.362511542,0.184540566,48.22007722,9.080603368,281.0475084,0.44680959,10.67550151,14.57743638,0.915550736,10,3
UK (Scotland),Aberdeen,Shell Cycle Path,2022,38,57.12639,-2.0984,556,262,608,4.641221374,206,2.694656489,31791.839,52.28920888,17237.9,52.55457317,328,1.105584727,0.006097561,0,0,0,0,491.9051688,35,108,63825.2202,0.446171754,0.226329839,17.27906977,8.498952735,280.4080026,0.50174358,2.969326477,4.275941461,0.869013989,9,0
UK (Scotland),Aberdeen,A93 Great Western Road (Eastbound),2022,38,57.139905,-2.114897,565,448,981,4.379464286,321,2.495535714,42830.94,43.6604893,22957.092,43.5618444,527,1.057670657,0.0056926,3,6,4,1,529.7638704,12,68,121861.621,0.283937539,0.185972919,29.17898833,2.488703299,282.3644426,0.337024482,57.64106021,41.14262553,0.701707821,8,1
UK (Scotland),Aberdeen,Tillydrone Rd,2022,38,57.17128,-2.1092,593,546,1465,5.366300366,468,2.827838828,52240.147,35.65880341,26514.701,35.73409838,742,1.062310208,0.001347709,0,4,0,0,1957.53241,2,146,32203.4644,0.465203973,0.175083136,25.89922481,6.791290548,280.5717108,0.95155466,14.35561371,15.71754213,0.862215963,5,0
UK (Scotland),Aberdeen,Beach Esplanade,2022,38,57.17429,-2.08537,657,122,280,4.590163934,96,2.663934426,17331.823,61.89936786,9327.066,61.36227632,152,1.194330152,0.013157895,0,0,0,0,0,112,35,44.49534233,0.281826126,0.266942477,5.706563707,2.058693631,280.3300705,0.535464396,3.120465088,3.147300915,0.788455708,0,0
UK (Scotland),Aberdeen,Deeside Way 2- Peterculter,2022,38,57.09515,-2.26319,759,177,421,4.757062147,131,2.536723164,21803.665,51.79017815,11071.831,51.73752804,214,1.071221115,0.004672897,1,2,3,0,1130.266845,124,35,30127.43296,0.463451981,0.176810533,32.61776062,10.53018429,282.5730574,0.840213177,9.995761871,7.460314392,0.89925529,8,0
UK (Scotland),Aberdeen,Skene Rd,2022,38,57.14586,-2.20013,876,64,134,4.1875,56,2.90625,12891.356,96.20414925,7999.169,95.22820238,84,1.069523636,0.011904762,0,2,0,0,801.7390627,68,110,774.2399508,0.524278266,0.151019844,134.4131274,3.721374848,280.6102229,0.273611172,0.404668354,0.297195789,0.640867505,11,0
UK (Scotland),Aberdeen,Deeside Way 1 - Duthie Park,2022,38,57.13264,-2.1032963,1440,339,816,4.814159292,274,2.693215339,43189.003,52.92769975,23094.643,52.72749543,438,1.082849312,0.002283105,2,4,1,0,1623.72534,136,146,87629.2586,0.394125711,0.17104133,15.5390625,2.019058969,282.0816707,0.58417892,17.03537681,9.64882585,0.838121888,8,2
Netherlands,Almere,Farflerpad,2019,36,52.344117,5.181989,2596,237,629,5.308016878,199,2.894514768,34010.442,54.07065501,17202.676,53.92688401,319,1.148382762,0.012718601,0,0,0,0,1460.212979,26,26,25931.84654,0.578873443,0.230319101,-0.663265306,2.225137208,288.4132598,1.396374582,14.18952148,4.459174238,0.968948701,0,0
Netherlands,Almere,Realiteitspad,2019,37,52.391616,5.220202,4328,237,624,5.265822785,208,2.945147679,32591.629,52.23017468,17492.383,54.15598452,323,1.14211113,0.006410256,0,0,0,0,851.4585311,60,1,5722.321117,0.725273975,0.127390983,-1.969072165,2.132002632,288.1067798,0.5445049,15.77160305,3.180290657,0.828211398,3,0
Netherlands,Almere,Havendreef,2019,42,52.352566,5.194785,6076,248,599,4.830645161,204,2.85483871,32233.99,53.81300501,18567.201,56.60732012,328,1.133304161,0.016694491,0,0,0,0,1072.845065,66,28,84066.8241,0.452303817,0.213500232,-0.959322034,1.557390108,291.7801649,0.814144933,24.21351002,4.482147783,0.840651581,6,9
Netherlands,Almere,Guilmetpad,2019,36,52.33783,5.166146,6712,36,74,4.111111111,31,2.888888889,8810.121,119.0556892,4645.191,113.2973415,41,1.169614677,0,0,0,0,0,1150.732332,39,37,0,0.573109197,0.205903463,-2.612456747,1.300246391,288.5052261,1.392278414,8.618376465,1.390002939,0.839826507,0,0
Netherlands,Almere,Spoorbaanpad vanaf Jonsonspad,2019,36,52.38305,5.264791,6988,403,1187,5.890818859,376,3.203473945,54497.969,45.91235805,27551.266,45.76622259,602,1.01462422,0,0,0,0,0,1916.852078,0,0,32073.30036,0.570121626,0.189229392,-4.193877551,1.264304519,288.8944637,0.923852419,13.10307255,3.079896765,0.818879192,7,0
Netherlands,Almere,Tuinkruidenpad,2019,37,52.388698,5.205427,12888,217,574,5.290322581,179,2.926267281,27341.654,47.63354355,13822.265,47.49919244,291,1.060231762,0.006968641,0,0,0,0,1081.671848,43,39,16672.78622,0.644860532,0.174586834,-2.013793103,2.062760811,288.8705971,0.956881984,12.37248779,1.659028012,0.819582933,0,3
Netherlands,Almere,Dunloppad,2019,36,52.346795,5.190189,25076,163,409,5.018404908,140,2.969325153,25324.803,61.91883374,13365.81,61.03109589,219,1.118848977,0.014669927,0,0,0,0,1472.926403,73,0,0,0.61557952,0.217894324,-0.089655172,2.181164641,288.0911099,1.552727636,10.87049316,4.065848626,0.93096235,0,0
Netherlands,Almere,Markerkant,2019,37,52.380747,5.215017,27024,739,2199,5.951285521,673,3.128552097,78712.121,35.79450705,40562.933,36.51029073,1111,1.058942086,0.003638017,0,0,0,0,903.389089,0,23,86040.09348,0.399028121,0.214242208,-2.889655172,1.443736729,292.1494647,0.702593566,31.51555888,1.122922416,0.831728367,5,7
Netherlands,Almere,Krompoort,2019,36,52.34425,5.21894,28276,709,1917,5.407616361,622,2.916784203,73195.098,38.18210642,38057.987,38.5983641,986,1.116727668,0.006259781,0,0,0,0,1350.103722,39,55,65584.56453,0.52070279,0.180277653,-1.948453608,1.30321675,289.7331,0.908883428,22.69893705,4.340205545,0.99258379,24,5
Netherlands,Almere,Rooseveltbrug,2019,37,52.377701,5.221937,30232,629,1760,5.59618442,561,3.103338633,67273.408,38.22352727,36551.194,39.0921861,935,1.068996629,0.006818182,0,0,0,0,2838.11088,59,55,84526.81345,0.460766032,0.194600445,-1.95862069,1.826531901,290.590582,0.50846098,30.81876315,3.223827305,0.957512925,10,4
Netherlands,Almere,Transferium 't Oor,2019,36,52.355182,5.210387,30452,282,745,5.283687943,255,3.063829787,33856.818,45.44539329,18344.358,46.09135176,398,1.086899113,0,1,6,0,0,1025.613265,55,18,1476.644521,0.521790599,0.234218939,-2.489726027,1.847776504,289.6712823,1.078248567,10.97861808,1.54415469,0.859269823,9,6
Netherlands,Almere,Burgerspad,2019,42,52.352776,5.20065,31600,152,378,4.973684211,120,2.789473684,24381.875,64.50231481,12248.639,64.129,191,1.095601434,0.010582011,0,0,0,0,1079.273363,1,57,22011.66207,0.631904338,0.205938424,-0.249146758,2.08914984,288.6787243,1.122245861,14.23213989,2.645116062,0.808967217,0,0
Netherlands,Almere,Melissepad,2019,37,52.379162,5.210936,34108,743,2174,5.851951548,680,3.126514132,80543.868,37.04869733,42024.356,37.82570297,1111,1.049134304,0.000919963,0,0,0,0,1046.06239,31,33,70201.32162,0.476507191,0.174584538,-3.317406143,1.418408025,290.9463901,0.376662938,20.72979492,5.112834782,0.788820333,10,5
Netherlands,Almere,Ambachtsmarkt,2019,36,52.341719,5.224953,34504,759,2023,5.330698287,649,2.837944664,74362.841,36.7586955,38455.925,37.22742014,1033,1.128199178,0.004943154,0,0,0,1,826.8747631,26,57,96562.97664,0.462997018,0.194898564,-1.085324232,1.383553932,290.4036636,0.675271359,23.56679507,5.390130433,0.979118898,37,0
Netherlands,Almere,Clauspad,2019,37,52.385184,5.187083,38116,243,619,5.094650206,216,2.983539095,29991.92,48.45221325,15974.338,48.70225,328,1.080963709,0,0,0,0,0,1241.989683,41,36,19647.3651,0.489898239,0.296564407,-4.722222222,1.050426133,288.3210399,0.748550953,8.841072998,1.707360655,0.840036087,0,1
Netherlands,Almere,Hengelostraat,2019,37,52.366787,5.214433,38764,615,1752,5.697560976,550,3.042276423,62907.299,35.90599258,32067.719,35.59125305,901,1.10248032,0.011415525,0,0,9,0,2063.03751,46,56,142637.8637,0.20999483,0.221690649,-3.840136054,2.200406885,289.6514772,2.139725446,17.99829956,4.758692723,0.749325707,3,0
Netherlands,Almere,Busbaanbrug,2019,36,52.352676,5.172289,40724,494,1339,5.421052632,423,3.04048583,49290.352,36.81131591,27483.782,38.27824791,718,1.064408264,0,0,1,0,0,740.3708797,39,43,55706.16697,0.373424264,0.236727829,-4.757785467,0.874563624,291.2837394,0.85737801,13.60454853,2.125688027,0.855826633,5,5
Netherlands,Almere,Mandelapad,2019,37,52.375303,5.220429,41508,694,1943,5.599423631,618,3.131123919,73084.395,37.61420226,39500.198,38.01751492,1039,1.068898685,0.007205353,1,18,5,3,3496.179208,74,33,138338.5614,0.254331746,0.195889771,-1.644827586,2.181756048,291.2777183,1.086645127,31.52662598,3.117325503,0.829843519,5,5
Netherlands,Almere,Pedersenpad,2019,36,52.338087,5.230673,41932,805,2189,5.438509317,710,2.905590062,77864.526,35.57082047,40074.753,35.65369484,1124,1.096093107,0.004568296,0,0,0,1,2103.928441,55,37,40514.26006,0.572972746,0.18395491,-2.128027682,1.072240121,288.7214079,1.281866751,18.8707101,4.086453456,0.975443919,7,10
Netherlands,Almere,Landvoogdpad,2019,37,52.375944,5.213568,54844,836,2423,5.796650718,754,3.129186603,84370.911,34.82084647,44544.358,35.24078956,1264,1.068751135,0.005777961,0,0,0,0,2037.688967,0,57,99524.2503,0.351507284,0.177923015,-1.965753425,3.285323077,290.5775344,0.332783964,29.93953764,3.670671387,0.78524867,8,12
Netherlands,Almere,Zuidwoldepad,2019,37,52.371509,5.213761,55280,692,1921,5.552023121,614,3.080924855,75037.034,39.06144404,39687.977,38.94796565,1019,1.104845974,0.010411244,1,1,2,1,4109.314514,51,74,172642.2334,0.327663096,0.16644449,-2.204778157,1.529809944,291.549426,0.826777256,29.88887985,2.932150257,0.669014224,8,6
Netherlands,Almere,Ter Apelpad / Brug,2019,37,52.373065,5.21507,56288,807,2251,5.578686493,719,3.104089219,79798.381,35.45019147,43008.923,35.54456446,1210,1.086385907,0.00888494,2,0,9,1,2576.000427,61,0,146484.7522,0.317316757,0.171084369,-1.75,2.194911612,291.2719609,0.587520029,32.15920585,1.013187035,0.691999166,13,14
Netherlands,Almere,Kolkplein / Coevordenbrug,2019,37,52.370434,5.212797,57228,657,1882,5.729071537,585,3.092846271,75359.453,40.04221732,39127.364,39.88518247,981,1.126271433,0.01487779,0,1,1,1,3573.278774,49,49,185694.0889,0.35582433,0.171695032,-2.659722222,1.498439904,291.5631443,0.867968606,27.42164394,3.996928125,0.767551914,4,0
Netherlands,Almere,Cinemadreef tpv Stadswetering,2019,37,52.372506,5.225716,58360,690,1888,5.472463768,601,3.05942029,72111.701,38.19475689,38539.245,38.08225791,1012,1.044502012,0.003177966,0,0,0,0,2031.140095,23,23,83803.72758,0.409640276,0.193434396,-2.295918367,2.227880771,290.6485736,0.540896025,26.42701172,5.179995703,0.753924047,7,11
Netherlands,Almere,Pirellipad,2019,36,52.392738,5.247987,61224,225,622,5.528888889,200,2.964444444,35751.326,57.47801608,17875.663,57.47801608,311,1.058349258,0.009646302,0,0,0,0,1828.372099,26,35,27620.33507,0.573927161,0.174971921,-5.432525952,1.54397395,290.3067349,1.217523437,10.60463539,1.955494498,0.732427899,1,1
Netherlands,Almere,Slapstickpad,2019,37,52.373938,5.22297,66840,756,2052,5.428571429,674,3.126984127,75328.664,36.70987524,41553.15,36.74018568,1131,1.050344251,0.002923977,1,0,0,3,3125.182282,27,59,137033.6706,0.314495701,0.206251821,-2.348122867,1.952063289,291.0185215,1.129881434,28.40793283,5.03689378,0.749248583,6,13
Netherlands,Almere,Geuzenpad,2019,36,52.385521,5.257554,66972,414,1154,5.574879227,373,3.106280193,55476.976,48.07363605,28741.819,47.90303167,600,1.021189776,0,0,0,0,0,2781.411561,60,60,40564.90905,0.534126221,0.198249794,-5.15916955,1.237642307,289.4079145,0.988462162,12.39172363,3.392606277,0.816779928,3,6
Netherlands,Almere,Giethoornpad,2019,37,52.369562,5.213886,70552,655,1888,5.764885496,587,3.094656489,74985.333,39.71680773,38491.24,39.5187269,974,1.126592891,0.015889831,0,2,9,1,2937.134356,49,49,195997.241,0.313525097,0.183167,-2.338983051,1.511651577,291.930904,0.93621386,26.65100316,3.876141013,0.743605652,4,1
Netherlands,Almere,Tjaikowskypad,2019,36,52.365863,5.193832,71260,1031,2958,5.738118332,897,3.066925315,95657.685,32.3386359,48960.989,32.14772751,1523,1.034395703,0.000676133,0,0,0,0,1502.640688,48,0,91575.39682,0.411895588,0.187139212,-2.570446735,1.509768697,290.6592956,0.669295307,23.27776874,4.124494522,0.904952112,18,4
Netherlands,Almere,Fongerspad,2019,37,52.368851,5.226168,73744,502,1395,5.557768924,439,3.059760956,53661.52,38.46703943,28212.756,38.12534595,740,1.03912166,0.002867384,0,0,0,0,1602.984406,56,0,78735.44177,0.361303562,0.275556801,-2.569444444,2.664459445,289.8695975,2.362146217,14.78743896,6.014488176,0.969395681,4,1
Netherlands,Almere,Chopinpad,2019,36,52.367608,5.19125,79180,1027,3015,5.871470302,911,3.134371957,94928.424,31.48538109,48448.279,31.35810939,1545,1.038270218,0.0013267,7,2,2,1,2095.551995,2,40,95989.62661,0.334657716,0.162909121,-2.689419795,1.21247385,291.4632573,0.601162581,26.89291721,5.579257636,0.772810948,17,1
Netherlands,Almere,PJ Oudpad tpv voetg entree Schoutgarage (fietspad station),2019,37,52.374555,5.217674,83284,776,2173,5.600515464,699,3.149484536,78165.752,35.97135389,42747.527,36.44290452,1173,1.073300079,0.004601933,1,18,10,3,2140.429401,56,23,170350.5863,0.195626116,0.143602538,-0.627586207,2.580950981,291.6788524,0.815809279,33.13463867,0.532980255,0.49036842,8,7
Netherlands,Almere,Spoorbaanpad tpv Hoogezandbrug,2019,37,52.374016,5.213907,84040,782,2205,5.639386189,697,3.104859335,78942.396,35.80154014,42242.872,36.19783376,1167,1.088113151,0.009070295,0,0,0,0,2613.902386,33,57,108817.5342,0.366171519,0.165715887,-1.517241379,2.879423909,290.9451509,0.487622812,31.40597534,1.96662407,0.738471961,7,13
Netherlands,Almere,Deventerstraat,2019,37,52.367827,5.214491,141956,667,1886,5.655172414,593,3.058470765,68171.742,36.14620467,34922.455,35.7080317,978,1.111946318,0.01378579,0,0,10,1,2023.464481,55,27,174138.143,0.275114545,0.181343441,-3.256055363,1.844332855,290.9877577,1.694592782,21.12165889,5.144723259,0.646054595,2,0
Netherlands,Almere,Judy Garlandbrug,2019,37,52.370957,5.226206,153500,631,1730,5.483359746,539,3.017432647,64739.714,37.4218,34449.131,37.48545267,919,1.043588629,0.002312139,0,0,0,0,2099.689635,0,0,147031.9754,0.389156758,0.183479866,-1.571917808,2.020010957,290.8797034,0.963251016,24.99614746,5.844888216,0.838798797,10,9
Netherlands,Amersfoort,"Zeeuwsestraat, tussen Groningerstraat en Fries...",2020,12,52.158856,5.376232,395,600,1480,4.933333333,553,3.133333333,55935.222,37.79406892,35424.948,39.40483648,899,1.04133704,0.004449388,0,6,2,3,2200.683793,118,92,208293.9523,0.255741818,0.146214289,5.633561644,2.394193244,294.8317513,0.954049914,29.1364793,2.160143188,0.6619151,29,5
Netherlands,Amersfoort,"Tulpstraat, tussen Soesterweg en Noordewierweg...",2020,12,52.158253,5.367677,612,302,767,5.079470199,266,3,37498.256,48.88951239,20911.757,48.85924533,428,1.040758831,0.002336449,0,2,2,1,590.2279018,147,60,119121.8053,0.34699242,0.17659841,7.617241379,1.730570758,293.8711071,0.930848453,21.86618381,3.886269412,0.809084329,23,2
Netherlands,Amersfoort,"Fuchsiastraat, tussen Soesterweg en Lobeliastr...",2020,12,52.158051,5.363814,650,204,549,5.382352941,181,2.980392157,31484.522,57.3488561,16483.581,57.6348986,286,1.041276994,0,0,0,4,0,0,144,145,174017.559,0.256885953,0.112110366,7.119863014,1.162785971,294.7193366,0.50661295,24.64702061,2.275992009,0.588648914,19,1
Netherlands,Amersfoort,"Parelhoenstraat, tussen Jan van Riebeeckpad en...",2019,15,52.167002,5.398844,1350,683,1849,5.414348463,641,3.136163982,58790.567,31.79587182,32667.478,31.68523569,1031,1.019029449,0,1,1,0,0,2720.228809,140,150,68307.24826,0.407119954,0.156872102,3.153061224,1.692432381,292.8105932,0.574786025,30.46258981,1.856765123,0.790266997,11,5
Netherlands,Amersfoort,"Kruiskamp, tussen Scheltussingel en Van Brakel...",2019,19,52.16122,5.392568,2559,531,1349,5.080979284,492,3.069679849,54493.701,40.39562713,31471.763,41.03228553,767,1.027662475,0,0,4,0,0,416.1824865,145,9,131281.9125,0.342899299,0.152105819,4.46779661,1.644141183,293.5924076,0.503870325,30.78194956,1.844580326,0.869004251,14,4
Netherlands,Amersfoort,"Voltastraat, tussen Scheltemalaan en Leusderwe...",2019,45,52.141877,5.380262,3633,232,567,4.887931034,223,3.168103448,32171.17,56.7392769,18713.42,54.5580758,343,1.052332481,0.002915452,0,1,0,1,703.1245849,102,74,133785.9766,0.38695562,0.152428404,8.986348123,1.126693481,293.0611087,1.1387979,27.61029297,2.758340775,0.828266706,16,1
Netherlands,Amersfoort,"Fietsoversteek Ringweg Koppel, tussen Jachtpad...",2019,11,52.16473,5.379136,3913,516,1384,5.364341085,478,3.151162791,56250.32,40.6432948,32101.99,41.6908961,770,1.03431949,0.001298701,0,4,0,0,1972.362388,86,84,62980.12154,0.405283815,0.167464673,2.820338983,2.149874231,292.6063681,0.628646564,28.50836182,2.844572785,0.810826402,9,8
Netherlands,Amersfoort,"Liendertsedreef, tussen Korhoenstraat en Kwart...",2019,15,52.168443,5.399433,4419,590,1603,5.433898305,557,3.138983051,47234.598,29.4663743,26062.958,28.99105451,899,1.020113502,0,0,2,0,0,1783.511502,0,150,80474.10972,0.402083336,0.146105663,3.137457045,1.569141554,293.3180116,0.523397435,29.70532016,1.539558576,0.845765292,15,4
Netherlands,Amersfoort,"Piet Mondriaanplein, ter hoogte van P+R, Amers...",2020,12,52.155781,5.365727,4511,182,452,4.967032967,153,2.824175824,23993.231,53.08236947,12805.758,52.91635537,242,1.059448851,0,0,0,3,0,0,25,0,114117.2255,0.232892575,0.128904943,5.836177474,1.580746485,295.4018436,0.732203059,23.79611997,1.28719385,0.63708196,3,0
Netherlands,Amersfoort,"Piet Mondriaanplein, ter hoogte van Railcenter...",2020,12,52.155054,5.369962,4836,375,917,4.890666667,326,2.976,38254.182,41.71666521,22286.539,42.12956333,529,1.049489031,0.003780718,0,0,1,0,284.992893,23,0,99838.67003,0.220111789,0.13622364,5.781144781,1.500588449,294.9216884,0.629788286,27.58940711,2.126400111,0.666388227,7,0
Netherlands,Amersfoort,"Laan 1914, tussen Loes van Overeenlaan en Stic...",2019,14,52.136621,5.360992,7550,150,392,5.226666667,137,3.08,30620.569,78.11369643,16671.823,80.93117961,206,1.053037429,0,0,2,1,0,1022.004479,113,113,17551.00009,0.611653739,0.149907166,37.75342466,5.52275696,290.078445,0.843795427,7.178569946,2.261164068,0.595522956,5,1
Netherlands,Amersfoort,"Van Campenstraat, tussen Leusderweg en Graaf L...",2019,45,52.145075,5.38015,7690,296,770,5.202702703,279,3.118243243,38513.51,50.01754545,21708.146,49.56197717,438,1.043703733,0,0,2,4,2,1461.171948,0,85,157731.6968,0.304738053,0.141515752,9.444067797,1.649681139,294.1953664,0.758701786,29.63785129,1.154894067,0.816503469,12,4
Netherlands,Amersfoort,"Stephensonstraat, tussen Lorentzstraat en Dalt...",2019,45,52.143019,5.384941,8395,328,844,5.146341463,308,3.091463415,40550.835,48.04601303,22211.387,46.37032777,479,1.05050819,0.002087683,0,1,0,0,924.8231703,118,92,121399.9493,0.343140529,0.113153496,8.29109589,1.138156478,293.4279251,0.798171128,28.22742541,2.273393159,0.855170909,19,7
Netherlands,Amersfoort,"Sara Burgerhartsingel, tussen Oudegein en Zwar...",2019,49,52.173654,5.393331,8481,533,1556,5.838649156,505,3.133208255,63517.701,40.8211446,32496.939,40.41907836,804,1.047333118,0.003731343,0,4,0,1,2881.271223,0,148,96135.93846,0.394115849,0.138068051,2.375426621,1.090922945,293.0906357,0.323973162,28.64064462,1.665824303,0.886416701,15,3
Netherlands,Amersfoort,"Sara Burgerhartsingel, tussen Abraham Blankaar...",2019,49,52.173938,5.391447,10738,538,1562,5.80669145,513,3.13197026,65803.111,42.12747183,33859.565,41.69897167,812,1.047856386,0.003694581,0,2,2,2,2273.577819,58,151,103960.1614,0.359156849,0.136546669,2.431506849,1.491563188,293.1880599,0.442736428,28.14525428,1.999751309,0.864329586,27,4
Netherlands,Amersfoort,"Kapelweg, tussen Hugo de Grootlaan en Van Effe...",2019,45,52.140763,5.375903,11084,231,595,5.151515152,221,3.164502165,34463.525,57.92189076,19491.934,57.66844379,338,1.031655519,0.00295858,0,2,0,0,1211.087633,0,120,94148.46676,0.468263063,0.162032327,13.87878788,3.985510949,291.9970302,0.558840852,23.49765625,4.906029032,0.930793233,20,7
Netherlands,Amersfoort,"Groningerstraat, tussen Zeeuwsestraat en Holla...",2020,12,52.158615,5.376587,14116,629,1558,4.953895072,581,3.158982512,58418.201,37.49563607,36985.956,38.76934591,954,1.03994457,0.004192872,0,6,2,3,2208.749628,64,99,207127.5705,0.25370112,0.134210904,5.440273038,2.562664981,294.8724134,0.801193128,29.27783907,1.502275667,0.632887941,33,6
Netherlands,Amersfoort,"Kapelweg, tussen Borgerlaan en Van Bemmelstraa...",2019,45,52.144904,5.375836,14627,240,645,5.375,225,3.129166667,36760.715,56.99335659,20055.413,57.30118,350,1.042479427,0.002857143,0,0,0,0,910.2007641,0,0,132775.5509,0.38135796,0.137746177,15.97627119,4.409863328,293.364637,0.499516639,29.55186244,1.815950372,0.938555795,19,4
Netherlands,Amersfoort,"Daltonstraat, tussen Marconistraat en Leusderw...",2019,45,52.14454,5.382109,14838,297,765,5.151515152,280,3.114478114,38253.326,50.00434771,21768.085,49.6988242,438,1.047500702,0.002283105,0,3,4,2,1453.185518,64,99,145656.3544,0.280894688,0.120981657,8.363636364,1.22368224,294.4704088,0.599363831,29.89548747,0.542985682,0.710633138,15,7
Netherlands,Amersfoort,"Noordewierweg, tussen Dongestraat en Gouwestra...",2020,12,52.160892,5.359941,14898,291,771,5.298969072,268,3.109965636,42185.32,54.71507134,23439.681,54.25852083,432,1.035304296,0,0,4,3,0,959.0760754,145,167,129088.7166,0.281918979,0.097811306,7.245733788,1.652701963,294.1975789,0.468642434,27.77545636,1.452135189,0.702893293,24,6
Netherlands,Amersfoort,"Meerkoetpad, tussen Liendertseweg en Jan van R...",2019,15,52.166909,5.39626,19019,541,1439,5.319778189,501,3.099815157,53316.814,37.05129534,30498.118,38.17036045,799,1.022977203,0,0,0,0,0,3308.062176,167,144,57194.90281,0.379552935,0.155277836,2.124137931,1.631089159,293.0556034,0.492622455,29.32422327,2.059505422,0.803819175,6,0
Netherlands,Amersfoort,"Noordewierweg, tussen M Withoosstraat en Paulu...",2020,12,52.158652,5.372964,20844,473,1171,4.951374207,435,3.118393235,47577.027,40.62939966,29524.675,41.76050212,707,1.038991146,0.004243281,0,4,1,1,771.1606285,24,7,150607.922,0.356628117,0.165434839,6.765306122,2.047734871,293.7385346,0.760621866,26.98248065,4.794769045,0.800471896,15,3
Netherlands,Amersfoort,"Liendertseweg, tussen Ringweg Kruiskamp en Lie...",2019,15,52.165996,5.399141,32071,684,1826,5.339181287,641,3.141812865,59211.205,32.42672782,33318.513,32.37950729,1029,1.01711555,0,2,1,0,0,2516.879303,31,127,76250.4615,0.39588079,0.161205297,3.390410959,1.509664245,292.6361988,0.557796675,31.53624512,1.063312677,0.779645781,12,4
Netherlands,Amsterdam,Nieuwe Hemweg,2022,38,52.4041176,4.8427629,25152,226,533,4.716814159,172,2.738938053,18677.141,35.04154034,10661.292,35.89660606,297,1.032388362,0,2,0,0,0,1250.11014,47,47,108289.8864,0.342613696,0.198965211,3.058823529,4.054131986,292.138692,0.934363884,38.22572981,2.657144861,0.791303796,7,2
Netherlands,Amsterdam,Netwerkweg,2022,38,52.4126053,4.880053,40640,379,1022,5.393139842,347,3.042216359,47080.588,46.06711155,25922.415,47.04612523,551,1.061424576,0.01369863,0,2,0,0,1661.708452,52,61,92651.20208,0.408870071,0.224847122,-1.56122449,2.337506928,291.6958763,1.307022147,21.95236328,5.065339456,0.804713202,16,5
Netherlands,Amsterdam,Skusjespad,2022,38,52.3369217,4.855587,48064,399,987,4.947368421,346,3.218045113,38803.151,39.31423607,24251.142,39.5614062,613,1.054131652,0.001013171,0,3,0,0,2168.773372,0,98,117486.0262,0.265295526,0.156935145,2.586206897,2.593323542,293.3030767,0.88039963,38.87874512,4.565432573,0.78623451,7,6
Netherlands,Amsterdam,De Boelelaan,2022,38,52.3349609,4.8832431,81328,519,1320,5.086705202,472,3.225433526,51829.73,39.26494697,31534.146,39.07576952,807,1.064566808,0.001515152,1,1,1,0,2040.875097,49,87,123475.5649,0.279895099,0.159494663,1.815699659,3.757153714,293.5323202,0.830061635,39.20486014,7.496624687,0.609801259,4,4
Netherlands,Amsterdam,Pontanusstraat,2022,38,52.3628998,4.9305749,96676,519,1263,4.867052023,497,3.420038536,46795.103,37.05075455,32330.535,38.17064345,847,1.013459687,0,2,1,14,9,2723.846531,63,52,175424.6097,0.284076676,0.148519489,5.171821306,1.496167997,291.9726695,0.403610294,41.21513672,1.702468013,0.614065875,11,5
Netherlands,Amsterdam,Erasmusgracht,2022,38,52.3756332,4.8396611,102080,631,1589,5.036450079,579,3.198098257,59534.32,37.46653241,38075.686,39.49759959,964,1.058710276,0.002517306,1,0,0,0,1938.282175,61,0,91308.45773,0.326463797,0.168756476,1.855172414,2.02902834,292.431314,0.973764377,34.62630887,6.350691872,0.798531352,3,0
Netherlands,Amsterdam,Plesmanlaan,2022,38,52.3513756,4.8340979,128756,539,1319,4.894248609,486,3.152133581,58331.81,44.22426839,36058.742,44.68245601,807,1.05839946,0.00075815,1,2,0,0,2015.261386,87,0,93470.51014,0.434753976,0.191372163,1.498281787,1.486189737,291.099232,0.784257541,41.43069223,2.148905617,0.809643916,9,3
Netherlands,Amsterdam,Weesperstraat,2022,38,52.3645134,4.9061499,164388,589,1423,4.831918506,549,3.322580645,47687.031,33.51161701,33118.933,35.72700431,927,1.046656243,0.001405481,0,0,7,1,1609.522123,79,76,172622.5175,0.182616349,0.112244478,6.35862069,2.861578687,291.7315463,1.068211987,40.72334035,0.875051169,0.645453187,6,10
Netherlands,Amsterdam,Jachthavenweg,2022,38,52.3331337,4.8550491,198340,353,887,5.025495751,310,3.212464589,39548.64,44.58696731,23385.704,43.14705535,542,1.041576893,0.002254791,0,0,0,0,2015.043031,0,64,160296.6418,0.286257347,0.158137536,0.044827586,1.232347412,292.3150952,0.940997327,37.5611852,4.282271394,0.773708379,9,5
Netherlands,Amsterdam,Fietspad Science Park,2022,38,52.3577042,4.9541869,201116,646,1638,5.07120743,480,2.70123839,45018.384,27.48375092,23607.939,27.48304889,859,1.043830352,0.001221001,17,2,1,0,1235.465932,92,92,43603.72269,0.424137903,0.209375903,-0.24829932,2.565385856,289.3839978,1.114488658,24.0131073,3.615881244,0.902953152,4,1
Netherlands,Amsterdam,Strawinskylaan,2022,38,52.3410149,4.8713231,217984,547,1408,5.148080439,484,3.129798903,53162.127,37.75719247,32157.642,38.97896,825,1.025330502,0.000710227,9,4,5,1,1728.921587,89,0,171633.8983,0.269359134,0.177829708,5.064846416,3.991359233,291.91875,1.072196651,43.24451623,0.835719806,0.749305073,15,3
Netherlands,Amsterdam,Linnaeusstraat,2022,38,52.3622704,4.9239888,232064,579,1445,4.991364421,555,3.423143351,51097.991,35.36193149,33650.985,35.27356918,954,1.023620264,0.001384083,0,2,11,9,2822.955482,91,2,121700.4106,0.364989394,0.194576206,5.165540541,2.02925272,291.0769586,0.770715263,39.92431205,2.280170278,0.728153333,25,9
Netherlands,Amsterdam,Weesperzijde,2022,38,52.3545341,4.908556,269552,455,985,4.32967033,432,3.397802198,38192.342,38.77395127,28767.311,39.51553709,728,1.022018745,0,2,1,12,1,2069.352965,91,80,144540.9081,0.19714481,0.140826827,4.337931034,2.046765959,292.5888638,1.055917715,38.8825949,5.235339013,0.898092189,8,0
Netherlands,Apeldoorn,"Zwitsal Fietspad Noord, van Edisonlaan naar Anklaarseweg, Apeldoorn",2019,45,52.23468,5.97547,3210,429,1048,4.885780886,369,2.995337995,47871.893,45.67928721,27905.833,46.1253438,605,1.035294798,0,1,0,0,0,2927.751749,37,78,106331.38,0.337475209,0.172207312,11.3814433,1.322108846,294.6696659,1.20247326,16.08009734,1.196916258,0.741132299,5,2
Netherlands,Apeldoorn,"Zwitsal Fietspad Zuid, van Pletterijweg naar Edisonlaan, Apeldoorn",2019,45,52.22815,5.97426,5671,456,1198,5.254385965,417,3.041666667,48547.319,40.52363856,27283.671,41.33889545,660,1.04138113,0.001669449,0,0,0,2,1803.857352,58,80,134685.5059,0.295337739,0.188695242,11.5532646,1.189767944,295.966446,0.854557659,16.74418386,1.505679409,0.693858532,2,0
Netherlands,Apeldoorn,"Barnewinkel fietspad, van Laan Van Groot Schuylenburg naar Zutphensestraat, Apeldoorn",2019,45,52.20741,6.01523,7407,257,733,5.704280156,242,3.13618677,40539.298,55.306,22386.436,58.75704987,381,1.075185664,0.010914052,1,0,0,0,1240.489733,59,65,28486.61265,0.488024731,0.171565827,11.54827586,3.707319944,291.7100168,0.781278293,6.99205604,1.126523739,0.870934537,3,5
Netherlands,Apeldoorn,"Laan Van Westenenk fietspad, van Middachten naar Albert Schweitzerlaan, Apeldoorn",2019,45,52.18516,5.95253,8550,372,1000,5.376344086,337,2.975806452,48270.969,48.270969,25522.772,48.24720605,529,1.051817562,0.002,0,2,0,0,1116.099865,44,76,40733.7503,0.574608188,0.183133406,25.30375427,2.69873303,290.6033076,1.609805952,8.68193465,2.881876808,0.768150598,12,0
Netherlands,Apeldoorn,"JF Kennedylaan fietspaden, van Jachtlaan naar Waltersingel, Apeldoorn",2019,45,52.21161,5.93966,8700,298,764,5.127516779,263,2.963087248,41403.392,54.19292147,22540.517,54.3144988,415,1.046853484,0.003926702,0,2,0,0,1874.84746,44,0,107406.7631,0.458204309,0.179949116,26.87118644,1.827385912,289.4612078,0.878794178,11.99875817,2.828251497,0.831866505,5,2
Netherlands,Apeldoorn,"Aluminiumweg fietspaden, van Houtweg naar Platinastraat, Apeldoorn",2019,45,52.19353,5.95789,9137,442,1152,5.212669683,403,3.011312217,50112.812,43.50070486,27536.272,43.16030094,638,1.051045732,0.003472222,0,1,1,0,1577.585125,49,78,99512.21044,0.313940226,0.114805739,21.65397924,1.121352872,292.8588901,0.565929841,15.67582703,1.240656349,0.834545087,14,2
Netherlands,Apeldoorn,"Deventerstraat fietspaden, van Osseveldweg naar Top Naeffstraat, Apeldoorn",2019,45,52.21633,5.9924,10099,675,1870,5.540740741,652,3.115555556,66825.78,35.73571123,36851.202,36.96208826,997,1.041423449,0.005347594,0,0,0,0,1880.34418,32,87,88048.38309,0.383279917,0.135805818,10.19723183,0.907023318,294.6656934,0.320893814,15.87474731,1.020435967,0.861370435,21,1
Netherlands,Apeldoorn,"Wilhelmina Druckerstraat fietspaden, van Aletta Jacobsstraat naar Van Galenstraat, Apeldoorn",2019,45,52.21132,5.95636,11410,470,1227,5.221276596,426,3.123404255,54380.034,44.31950611,30740.009,43.97712303,699,1.044768447,0.001629992,0,0,3,1,2428.75293,89,89,134137.8833,0.281568515,0.121770645,18.40878378,1.207433567,291.7378651,0.714856346,18.34725298,0.346168548,0.757791032,12,6
Netherlands,Apeldoorn,"Veenhuizerweg fietspaden, van Laan Van Osseveld naar Vosweide, Apeldoorn",2019,45,52.21786,6.00285,12540,526,1400,5.323193916,488,3.076045627,57750.778,41.25055571,32160.985,41.76751299,770,1.034015897,0,2,2,0,2,1855.133876,74,20,100922.0628,0.33396085,0.164493319,7.726027397,1.235993017,294.4612564,0.610747793,15.82060298,1.816754533,0.740327308,15,5
Netherlands,Apeldoorn,"Regentesselaan fietspaden, van Meester Van Hasseltlaan naar Oranjelaan, Apeldoorn",2019,45,52.21979,5.96056,15468,391,924,4.726342711,374,3.335038363,39738.016,43.00651082,26468.789,42.41793109,624,1.02689869,0,0,3,0,0,2440.893728,93,80,64845.7014,0.495986527,0.134177411,19.84693878,1.870021504,291.0143495,0.964760036,11.4897583,2.06215216,0.631467693,13,3
Netherlands,Apeldoorn,"Europaweg fietspaden, van De Heze naar Holthuis, Apeldoorn",2019,45,52.202,5.95008,15685,383,957,4.997389034,336,2.994778068,44554.226,46.55614002,25183.643,46.12388828,546,1.085092872,0.002089864,0,2,0,0,1876.158394,49,49,87697.94643,0.394214209,0.164842565,21.77474403,1.294690003,291.1962627,0.901326801,16.81926219,1.889250981,0.894509347,23,7
Netherlands,Apeldoorn,"Johan Steenbergenstraat fietspad, van Generaal Van Heutzlaan naar Vlijtseweg, Apeldoorn",2019,45,52.22047,5.96954,16687,362,944,5.215469613,340,3.113259669,44470.315,47.10838453,24275.45,45.88931947,529,1.038698104,0,0,1,0,0,1793.579145,51,68,104739.6467,0.385392076,0.200293092,15.95254237,2.479294318,293.8282855,1.369028104,16.0056621,2.204284199,0.819180945,9,0
Netherlands,Apeldoorn,"Paslaan, van Hoofdstraat naar Kerklaan, Apeldoorn",2019,45,52.21663,5.96192,18284,447,1081,4.836689038,416,3.243847875,45433.218,42.02887882,28630.725,41.675,687,1.037442763,0,2,1,45,1,2972.332644,69,70,174066.1061,0.286439264,0.177558026,20.03071672,1.568377294,291.7635593,1.1239578,17.3325524,2.149522075,0.797150477,7,2
Netherlands,Apeldoorn,"Asselsestraat, van Driehuizerweg naar Schaapweg, Apeldoorn",2019,45,52.20951,5.94538,19140,300,786,5.24,276,3.083333333,41467.183,52.75723028,22295.094,52.09134112,428,1.044380742,0.002544529,0,0,0,1,739.3503474,44,75,116776.4057,0.287604283,0.110744704,23.73720137,1.403025139,290.885488,1.171618741,16.00272696,0.919008684,0.81569226,12,2
Netherlands,Apeldoorn,"Prinses Beatrixlaan, van Spoorovergang naar Holthuis, Apeldoorn",2019,45,52.20478,5.95221,22859,431,1037,4.812064965,392,3.157772622,50112.371,48.32436933,30249.484,47.0442986,643,1.066471271,0,0,0,0,0,2578.728306,68,80,74177.62352,0.474104627,0.205177809,19.62244898,1.472066247,290.1700538,0.947147806,17.04816546,0.920064775,0.631882004,5,1
Netherlands,Apeldoorn,"Matenpoort fietspaden, van Kanaal Zuid naar Wagenmakershoek, Apeldoorn",2019,45,52.2046,5.98246,24349,520,1396,5.369230769,465,2.990384615,57446.493,41.15078295,30327.482,40.87261725,742,1.060705905,0,0,2,0,0,2052.012192,0,68,111984.7518,0.314319885,0.183105368,13.30952381,1.138135086,294.6232969,2.464790027,15.55552002,2.293844711,0.892190269,9,1
Netherlands,Apeldoorn,"Laan Van Osseveld fietspaden, van Het Rietveld naar Fietsoversteek Hovenlaan, Apeldoorn",2019,45,52.21277,6.00106,25269,384,1033,5.380208333,352,3.080729167,50983.509,49.35480058,27848.557,50.17758018,555,1.054506822,0.001936108,0,0,1,0,1445.808916,46,80,87140.31213,0.289918897,0.1390567,9.324137931,1.683111891,295.2104024,1.127345944,11.65460459,2.423361137,0.800048557,8,4
USA,Arlington County,Ballston Connector,2022,38,38.88295,-77.121188,130,564,1446,5.127659574,471,2.969858156,56151.862,38.83254633,31297.326,39.41728715,794,1.048730783,0.003457815,0,2,0,0,1669.995414,62,90,54317.49539,0.435810228,0.141925448,88.28763441,5.819928481,293.5909628,0.783448148,16.70226681,21.30947326,0.689911525,11,7
USA,Arlington County,Eads SB,2022,38,38.859381,-77.053438,432,955,2724,5.704712042,834,3.113089005,83359.516,30.60187812,45955.701,31.78125934,1446,1.057725415,0.002202643,4,9,1,2,3086.347825,101,101,157465.8353,0.223610983,0.144902256,23.31891892,7.340072827,297.0454679,0.447452003,115.9479693,124.9162703,0.585752736,6,12
USA,Arlington County,Joyce St SB,2022,38,38.867234,-77.062974,446,525,1324,5.043809524,487,3.161904762,57436.635,43.38114426,36510.328,46.21560506,790,1.094190624,0.000755287,0,6,0,0,2097.329457,78,16,70962.37138,0.310998298,0.208751916,21.29758713,6.953689751,296.3657804,1.220932649,22.18360855,43.82524191,0.791880992,7,5
USA,Arlington County,Eads NB,2022,38,38.857777,-77.053127,472,971,2785,5.736354274,847,3.123583934,84818.302,30.45540467,45615.617,30.98887024,1472,1.061187111,0.001436266,4,10,0,1,2704.281613,90,0,161440.7591,0.233818351,0.156765187,24.58490566,6.841697798,297.1612466,0.43346765,102.6099494,103.3554474,0.601029005,12,12
USA,Arlington County,Military bike lane,2022,38,38.906708,-77.110211,524,313,820,5.239616613,261,2.955271565,48437.077,59.0696061,24971.098,57.80346759,432,1.170977577,0.004878049,0,6,0,0,921.7307502,0,89,66067.59066,0.5758575,0.140676777,86.24331551,7.011232067,295.5564496,0.616744396,9.91578046,5.699749465,0.562229628,7,3
USA,Arlington County,Clarendon EB bike lane,2022,38,38.888933,-77.090172,837,1454,4346,5.977991747,1332,3.268913343,113905.845,26.20935228,60384.451,26.26552893,2299,1.030582891,0.000460193,7,9,13,1,392.3383809,43,43,147044.3994,0.292735655,0.185692823,77.41778976,4.436507024,297.2634317,0.619330228,65.18115234,67.75345722,0.625892671,24,11
USA,Arlington County,Crystal NB bike lane,2022,38,38.857138,-77.049265,983,617,1643,5.325769854,526,3.050243112,59587.064,36.26723311,34981.143,38.61053311,906,1.083322833,0.001217285,4,12,6,0,2298.429738,131,0,172045.7188,0.255008214,0.179457696,23.43010753,8.333631628,296.2180282,0.721208307,45.27995531,85.09025868,0.762039494,6,1
USA,Arlington County,Quincy bike lane,2022,38,38.885537,-77.108124,1370,992,2818,5.681451613,844,3.060483871,82075.438,29.12542158,42960.338,29.22471973,1470,1.074141151,0.00212917,3,11,0,0,690.781866,56,63,92503.69774,0.402078577,0.186978607,84.65498652,3.285120533,295.7015457,1.433219417,35.36084333,56.93811034,0.867952218,8,4
USA,Arlington County,Wilson WB bike lane,2022,38,38.889818,-77.090215,1524,1338,4042,6.041853513,1230,3.271300448,107947.847,26.70654305,56291.981,26.56535205,2119,1.030326737,0.000494805,5,8,12,1,270.3747645,68,34,145404.1785,0.317085081,0.185720496,77.05405405,4.067976095,297.2067666,0.600958607,51.31808733,59.91413088,0.632072582,22,13
USA,Arlington County,Arlington Mill Trail,2022,38,38.845693,-77.096207,1677,683,1889,5.53147877,593,2.98682284,68324.503,36.16966808,35770.272,36.53756078,979,1.082432495,0.004235045,2,11,0,1,1709.495345,18,18,71881.23353,0.401729865,0.188383453,22.93315508,3.665611576,297.916419,0.97362907,23.04471842,19.45333732,0.68779742,9,3
USA,Arlington County,Fairfax,2022,38,38.883282,-77.103564,2107,1183,3422,5.785291631,1021,3.109044801,96701.008,28.25862303,50647.87,28.46985385,1779,1.050516706,0.001753361,5,9,4,3,307.7295319,56,0,139476.9091,0.249505882,0.1777142,85.5298913,5.87636922,294.4688753,0.7410887,76.37055368,176.6627404,0.721727907,13,14
USA,Arlington County,Roosevelt Bridge,2022,38,38.893842,-77.065724,2112,302,725,4.801324503,272,3.122516556,36118.16,49.81815172,23827.229,53.78606998,443,1.094320188,0.005517241,1,0,0,0,1222.634005,34,34,21376.55971,0.285023566,0.339562171,11.87027027,9.812536517,293.3097204,2.32930742,5.738986715,22.2863185,0.859598393,5,2
USA,Arlington County,110 Trail,2022,38,38.885282,-77.065092,3696,238,579,4.865546218,205,2.953781513,28629.084,49.44574093,17684.264,54.08031804,327,1.14070459,0.006908463,0,1,0,0,1538.442851,49,48,17695.72176,0.613632498,0.187140996,13.22282609,4.755354037,294.5439923,0.728779304,0,0,0.682203184,6,0
USA,Arlington County,Key Bridge West,2022,38,38.900579,-77.070839,3922,371,1003,5.407008086,341,3.185983827,38464.843,38.34979362,21978.249,40.03324044,549,1.049616894,0,1,3,0,0,612.8237736,90,90,22413.80534,0.172401351,0.397098481,11.06199461,9.534385794,292.6143868,2.307211304,2.068364682,3.578419178,0.839128262,8,5
USA,Arlington County,CC Connector,2022,38,38.857736,-77.047428,3989,421,1094,5.197149644,363,3.059382423,43274.784,39.55647532,25964.126,42.35583361,613,1.062928132,0,1,1,5,0,2421.674217,0,90,187867.3874,0.293337133,0.198827709,17.7688172,9.208475274,295.992735,0.954619102,21.71276486,33.42963827,0.811628189,2,0
USA,Arlington County,Custis Bon Air Park,2022,38,38.879216,-77.138449,5522,386,1140,5.906735751,362,3.28238342,66672.773,58.4848886,34381.62,57.88151515,594,1.22626963,0.00877193,1,0,0,0,3275.986445,116,120,27749.08718,0.53692457,0.155609772,81.77088949,5.279142095,295.3257728,0.894803846,15.87226778,11.26021246,0.784938125,8,7
USA,Arlington County,W&OD Bon Air Park,2022,38,38.878819,-77.138283,5599,378,1117,5.91005291,354,3.285714286,66919.606,59.91012175,34714.82,59.44318493,584,1.222615365,0.008952551,1,0,0,0,3309.693473,116,120,23905.45754,0.549941164,0.153131352,82.10695187,5.702922115,295.1706536,0.868862969,14.28448671,9.528949499,0.760998895,6,6
USA,Arlington County,TR Island Bridge,2022,38,38.898021,-77.067741,6038,379,992,5.234828496,348,3.232189974,37537.036,37.83975403,22867.107,39.42604655,580,1.05605997,0,2,0,2,0,872.9695992,0,90,47612.42868,0.333681498,0.3414283,12.49865229,11.33926096,292.8950653,1.85561389,1.713700867,5.696814358,0.846597595,5,2
USA,Arlington County,W&OD Columbia Pike,2022,38,38.857163,-77.110846,6462,726,2052,5.652892562,625,2.99862259,71610.379,34.89784552,37072.518,35.27356613,1051,1.108631497,0.007309942,3,6,2,3,2161.099229,116,0,72935.35674,0.401269246,0.2037596,46.76151762,7.807128552,297.1158224,1.286322796,52.98364652,49.19930357,0.741278673,6,3
USA,Arlington County,Custis Rosslyn,2022,38,38.897104,-77.083456,6621,893,2366,5.298992161,700,2.844344905,73737.546,31.16548859,38954.969,31.79997469,1225,1.062768304,0.000845309,3,9,1,1,2908.223745,42,12,66555.24272,0.434696547,0.178895388,58.09677419,5.971823655,296.0770749,0.680191383,39.8939209,33.37215592,0.857127931,18,3
USA,Arlington County,Rosslyn Bikeometer,2022,38,38.899086,-77.071185,6742,483,1297,5.370600414,433,3.18426501,40361.868,31.11940478,23991.14,32.81961696,731,1.050984461,0.00077101,5,9,5,0,1319.314891,101,44,66515.50097,0.327215367,0.278445802,20.64247312,12.12274244,294.3006013,1.557688317,4.41267754,8.38112752,0.824649599,14,11
USA,Arlington County,W&OD Bon Air West,2022,38,38.879313,-77.139145,7043,371,1090,5.876010782,347,3.277628032,64490.352,59.16546055,33171.267,58.6064788,566,1.220754082,0.00733945,0,0,0,0,3192.961354,116,120,31736.3044,0.533522565,0.153991956,81.9383378,5.362360573,295.483223,0.785739232,15.6611735,9.561385812,0.745978478,10,6
USA,Arlington County,Key Bridge East,2022,38,38.900487,-77.070624,7399,378,1022,5.407407407,346,3.169312169,38558.587,37.72855871,21852.55,39.23258528,557,1.049945141,0,0,3,0,0,617.3484305,90,90,36097.02996,0.17668852,0.396049395,10.91689008,9.454905474,292.6138423,2.299386465,1.585102876,3.174070709,0.832795473,8,4
USA,Arlington County,14th Street Bridge,2022,38,38.874291,-77.044605,10564,86,155,3.604651163,78,2.918604651,15676.479,101.1385742,12485.232,114.5434128,109,1.151736128,0,0,0,0,0,2020.50881,130,120,0,0.125993439,0.316894278,2.755376344,5.087074927,292.7044341,2.026166807,0,0,0.810958671,14,0
USA,Arlington County,MVT Airport South,2022,38,38.844317,-77.048911,11800,382,996,5.214659686,348,3.146596859,48321.064,48.5151245,28253.511,49.74209683,568,1.082860227,0,3,2,0,1,888.6520576,126,0,104799.344,0.193620001,0.185764701,6.198910082,2.592422181,298.0492564,1.512881075,4.886722565,18.63279597,0.739014417,7,6
Netherlands,Arnhem,"Rijnkade (boven), van Roermondseplein naar Vossenstraat, Arnhem",2019,41,51.97949,5.901977,2672,459,1155,5.032679739,424,3.150326797,50097.452,43.37441732,30879.118,44.81729753,689,1.048378478,0.003463203,1,0,3,0,2071.217734,68,126,79626.29451,0.129637861,0.181291945,11.84300341,4.797887105,297.653414,2.496506288,16.81181053,4.664578095,0.74166346,11,7
Netherlands,Arnhem,"Drielsedijk, van Meginhardweg naar Hannesstraatje, Arnhem",2019,41,51.968371,5.870278,3737,252,650,5.158730159,207,2.71031746,30669.932,47.18451077,15334.966,47.18451077,325,1.070112228,0,0,0,0,0,701.7737801,32,48,886.7461624,0.589379265,0.146534799,7.935810811,1.580904212,296.4435764,1.007447683,4.379227295,1.177444356,0.595613435,4,0
Netherlands,Arnhem,"Westervoortsedijk fietspaden, van Oude Veerweg naar Zevenaarseweg, Arnhem",2019,41,51.971649,5.948607,4238,147,339,4.612244898,132,3.149659864,23814.894,70.25042478,14062.241,65.71140654,214,1.058667752,0,0,0,0,0,1735.634935,35,38,128940.1251,0.258394007,0.159007587,12.63013699,1.739995665,300.9222722,1.867761994,13.89070638,2.742122084,0.729207991,7,7
Netherlands,Arnhem,"Westervoortsedijk fietspaden, van Doctor C. Lelyweg naar Driepoortenweg, Arnhem",2019,41,51.97132,5.938157,6588,207,456,4.405797101,182,3.086956522,22878.343,50.17180482,14289.673,47.00550329,304,1.110730282,0.00877193,0,5,0,0,2262.570654,42,117,166658.0614,0.204936745,0.144337591,12.98634812,2.289570799,302.8094223,1.220017038,22.220354,2.752338164,0.65418729,3,3
Netherlands,Arnhem,Fietspad Nijmeegseweg noordwest,2019,36,51.96129,5.89391,6721,550,1413,5.138181818,506,3.118181818,59316.646,41.97922576,33826.054,41.60646248,813,1.06067483,0.004246285,0,0,0,1,1996.741646,13,0,199151.7176,0.318133464,0.170602815,13.44781145,4.093783197,300.6127764,1.185429315,17.46822466,2.354389366,0.867585586,5,0
Netherlands,Arnhem,"Apeldoornseweg fietspaden, van Sonsbeekweg naar Sint Peterlaan, Arnhem",2019,41,51.98965,5.90803,7278,383,958,5.002610966,364,3.214099217,44005.78,45.93505219,26944.518,46.21701201,583,1.034889554,0,2,4,6,0,1870.200728,102,102,73582.90557,0.45907938,0.163572939,42.22525597,7.424967819,298.132944,1.702473454,16.45561275,5.512491752,0.809097184,12,4
Netherlands,Arnhem,"Malburgse Bandijk fietspad, thv Stadswaardenlaan, Arnhem",2019,41,51.968168,5.923968,7762,228,628,5.50877193,222,3.179824561,28115.826,44.77042357,15588.055,45.05218208,346,1.02266538,0,0,0,0,0,1894.712569,0,66,30967.73561,0.441671965,0.314221045,9.303754266,2.659239717,294.6753029,2.409368867,9.10629966,1.980450297,0.845460417,8,1
Netherlands,Arnhem,"Noordelijke Parallelweg, van Frombergstraat naar Beaulieustraat, Arnhem",2019,41,51.985844,5.895989,9164,518,1230,4.749034749,466,3.025096525,45649.568,37.11346992,29181.444,39.22237097,744,1.046828201,0.003252033,2,3,0,0,1586.928529,0,0,232887.0749,0.282318611,0.171112136,37.17006803,6.062457405,301.0215837,0.769075097,23.30116054,3.616825304,0.768051296,9,2
Netherlands,Arnhem,"Schaapdijk Tunnel, van Oude Zevenaarseweg naar Ringoven, Arnhem",2019,41,51.973292,5.954012,10570,214,518,4.841121495,198,3.08411215,29967.557,57.85242664,17374.989,57.53307616,302,1.062943585,0,0,2,0,0,2414.352722,120,69,86353.13838,0.355842671,0.203179514,12.9112628,1.86552414,299.26634,2.384078091,14.95315904,4.63148769,0.717573333,3,4
Netherlands,Arnhem,"Batavierenweg fietspad, van Hollandweg naar Drielsedijk, Arnhem",2019,41,51.966796,5.877702,11634,177,432,4.881355932,142,2.672316384,25421.866,58.84691204,13532.533,61.79238813,219,1.082774108,0,0,0,0,0,1072.302818,117,42,10324.67793,0.624988352,0.132919841,10.62585034,3.482142753,296.3830011,0.97158636,7.338906508,1.978377884,0.734684929,3,1
Netherlands,Arnhem,Fietspad Ruitenberglaan,2019,36,51.987957,5.945954,12259,596,1577,5.291946309,548,3.046979866,59577.595,37.77907102,33249.809,38.30623157,868,1.060912984,0.001268231,1,0,0,0,707.8570139,26,0,67145.62915,0.481995252,0.204943865,14.89152542,3.351968212,296.4813144,1.658107966,9.558519217,2.135716064,0.821253809,0,0
Netherlands,Arnhem,Fietspad Vosdijk (onderdoorgang spoor),2019,36,51.98255,5.931724,13840,513,1346,5.247563353,474,3.064327485,52212.019,38.79050446,29685.17,39.7391834,747,1.042025915,0,0,0,0,0,1048.418029,53,105,67217.59489,0.404348545,0.159848248,13.37800687,3.599550967,299.0122994,1.117561948,14.59061121,3.658348123,0.909556782,2,0
Netherlands,Arnhem,"Oude Zevenaarseweg fietspad, van Driepoortenweg naar Schaapdijk, Arnhem",2019,41,51.974294,5.951645,14159,268,687,5.126865672,253,3.085820896,37308.374,54.30622125,20986.132,54.08796907,388,1.051620903,0,0,4,0,0,2445.623786,1,25,119447.675,0.285208035,0.189079725,12.44557823,1.662541751,300.718487,2.126709219,19.7588501,5.018584096,0.77201932,3,0
Netherlands,Arnhem,"Amsterdamseweg fietspaden, van Frombergstraat naar Beaulieustraat, Arnhem",2019,41,51.987372,5.896559,14314,532,1295,4.868421053,472,3,49267.659,38.04452432,29767.365,39.42697351,755,1.047354838,0.003088803,1,4,0,2,1594.640345,0,0,244619.9832,0.343230913,0.192448409,40.93918919,4.241408409,301.1308727,1.332708743,26.03336443,1.538844339,0.985293404,15,4
Netherlands,Arnhem,"Bovenbrug fietspad, van Bovenbrugseweg naar Renssenstraat, Arnhem",2019,41,51.985322,5.896912,15401,532,1283,4.823308271,481,3.052631579,45872.89,35.75439595,29311.075,37.72339125,777,1.045678063,0.003117693,2,3,0,0,1600.989549,0,0,259809.2746,0.256648709,0.170905738,34.48464164,6.79770612,300.8265467,0.516555885,22.6311084,3.512452466,0.905146308,11,1
Netherlands,Arnhem,"Sonsbeeksingel, van Paulstraat naar Roosendaalsestraat, Arnhem",2019,41,51.985428,5.919414,15726,526,1206,4.585551331,469,3.039923954,45866.067,38.03156468,29922.152,39.37125263,760,1.048056382,0.00331675,0,2,5,4,1441.201947,69,16,183220.8885,0.241519437,0.123616442,20.51194539,2.974985698,301.974776,0.755415752,28.32514445,0.390639017,0.670052367,30,7
Netherlands,Arnhem,"Fietspad Grote Griet, van Drielsedijk naar Eldensedijk, Arnhem",2019,41,51.972789,5.893091,16033,90,231,5.133333333,83,3.055555556,16981.577,73.51332035,9084.842,76.34321008,119,1.04904658,0,0,2,1,0,1615.527394,0,0,396.0138488,0.668875109,0.156089543,9.993243243,2.489156542,294.9621107,0.729005539,8.223106689,1.327885143,0.715892886,0,0
Netherlands,Arnhem,"Sonsbeeksingel (Arnhem), fietsstroken (weg gemengd verkeer)",2019,36,51.985413,5.919417,16916,525,1205,4.59047619,468,3.04,45806.312,38.01353693,29862.397,39.34439657,759,1.048121611,0.003319502,0,2,5,4,1442.220181,69,16,183999.5123,0.241665474,0.123735793,20.47079038,2.95934754,301.9768301,0.755905714,28.32514445,0.390639017,0.6712578,30,7
Netherlands,Arnhem,"Zijpendaalseweg fietspaden, van Van Pallandtstraat naar Burgemeestersplein, Arnhem",2019,41,51.98882,5.900083,17265,366,953,5.207650273,339,3.161202186,44590.868,46.7899979,25720.184,46.93464234,548,1.040963691,0.004197272,1,2,2,0,1568.05178,124,61,67875.03815,0.487944273,0.160870961,30.14334471,5.133035454,297.9012105,1.87496545,17.50128965,6.295985192,0.851390761,10,2
Netherlands,Arnhem,"Oude Kraan fietspad, van Bergstraat naar Nieuwe Plein, Arnhem",2019,41,51.981505,5.901839,17829,638,1567,4.912225705,575,3.089341693,57851.103,36.91838098,35989.353,37.88352947,950,1.043671192,0.002552648,4,2,36,1,2392.363692,120,57,142756.3792,0.193308651,0.130278407,16.89041096,5.069548206,300.683983,1.625164996,22.35924639,3.552259623,0.660160086,20,7
Netherlands,Arnhem,"Hommelseweg, van Spoorwegstraat naar Paterstraat, Arnhem",2019,41,51.984932,5.914253,18555,601,1425,4.742096506,549,3.138103161,52047.511,36.52456912,33996.103,37.77344778,900,1.031134793,0.002807018,2,2,13,6,1932.728108,0,0,200673.3006,0.233169446,0.122246345,23.05802048,2.804198249,300.6963292,1.165117662,28.9379702,0.185417929,0.669844482,29,9
Netherlands,Arnhem,"Huissensedijk, weg gemengd verkeer",2019,36,51.95702,5.8895,19087,424,1069,5.04245283,373,2.992924528,48546.227,45.41274743,26992.25,44.98708333,600,1.05523553,0.003741815,0,2,0,0,1490.33475,0,116,75113.80107,0.367048826,0.151367341,10.10309278,1.587003938,300.4910143,1.482105966,17.37615741,1.990099867,0.839803381,22,2
Netherlands,Arnhem,"Voetiusstraat fietspaden, van Johan De Wittlaan naar Ijssellaan, Arnhem",2019,41,51.980895,5.935425,19395,484,1267,5.23553719,445,3.074380165,46999.139,37.09482163,26624.495,37.65840877,707,1.031486115,0,0,2,0,1,1878.44232,0,5,42596.38383,0.391021913,0.178767865,11.89830508,2.165170485,298.6641425,1.325525093,13.07162231,2.7767989,0.819463546,13,7
Netherlands,Arnhem,"Roosendaalsestraat, van Atjehstraat naar Hoflaan, Arnhem",2019,41,51.988889,5.925783,19601,521,1247,4.786948177,471,3.051823417,48380.6,38.79759423,29025.078,38.39296032,756,1.041801948,0.001603849,1,3,3,1,900.5109471,106,0,177730.6646,0.262421417,0.129584015,27.71672355,6.01519352,301.636785,0.387537157,25.21815095,1.70284357,0.702780041,20,4
Netherlands,Arnhem,Fietspad Nijmeegseweg zuidoost,2019,36,51.96139,5.89557,21246,628,1598,5.089171975,576,3.130573248,69808.667,43.68502315,40703.231,43.57947645,934,1.059939309,0.003754693,0,0,0,0,2557.405216,13,0,194719.7647,0.336193524,0.173570249,12.78498294,3.651851615,300.682839,1.296606637,17.78257165,2.498029981,0.851204221,6,19
Netherlands,Arnhem,"Brinksestraat, van Huissensedijk naar Kronenburgdijk, Arnhem",2019,41,51.958338,5.888728,22232,433,1092,5.043879908,385,2.965357968,49003.207,44.87473168,26455.962,44.01990349,601,1.051417867,0.001831502,0,1,0,0,1176.37699,74,35,45388.66746,0.477241095,0.149135908,10.13945578,2.00448673,299.0795334,1.1682112,15.71763259,2.444684992,0.823908871,6,0
Netherlands,Arnhem,"Utrechtsestraat, van Nieuwe Plein naar Coehoornstraat, Arnhem",2019,41,51.983316,5.902694,23158,656,1629,4.966463415,602,3.158536585,58652.917,36.00547391,37170.029,37.170029,1000,1.038293111,0.002455494,11,20,50,2,2303.426038,0,0,296038.0647,0.161961972,0.110994277,23.10774411,3.493405133,301.3648677,0.656337848,25.2693743,1.723591211,0.609294822,13,1
Netherlands,Arnhem,"Huissensedijk (Hoefijzerpad), fietspad",2019,36,51.965465,5.889367,23496,307,825,5.374592834,292,3.081433225,41233.106,49.97952242,22707.535,51.02816854,445,1.048862035,0,0,2,0,0,1947.635766,116,125,12413.9365,0.488783049,0.180678268,10.18088737,2.188562395,298.8096065,1.748921425,12.76469238,3.74664541,0.836884839,6,0
Netherlands,Arnhem,"Steenstraat, van Bloemstraat naar Tuinstraat, Arnhem",2019,41,51.983826,5.916475,23548,586,1379,4.706484642,527,3.093856655,50340.215,36.50486947,32639.226,37.60279493,868,1.03394442,0.002900653,2,0,16,8,1585.912236,54,26,213213.4749,0.213328903,0.111957187,19.46779661,2.509266939,302.0470339,0.900428587,28.67442139,0.493080202,0.652425966,25,9
Netherlands,Arnhem,"Stadhoudersstraat, fietspad",2019,36,51.977983,5.924949,26021,510,1297,5.08627451,464,3.098039216,46572.049,35.90751658,27332.672,35.96404211,760,1.022479259,0,0,2,1,1,919.2258746,16,35,117013.4807,0.318865662,0.13908665,13.44709898,1.464517806,300.9514452,0.508536089,25.60677011,1.778485808,0.911162419,21,2
Netherlands,Arnhem,"Johan de Wittlaan, fietspad",2019,36,51.978514,5.93779,27406,392,1005,5.12755102,363,3.145408163,40442.333,40.24112736,23826.925,40.52198129,588,1.02393961,0,0,2,0,0,855.5951253,50,103,94633.92948,0.423821773,0.209842584,11.52702703,2.079325339,299.3770461,2.385396053,16.05529785,4.932013294,0.913671303,12,2
Netherlands,Arnhem,"Zevenaarseweg, fietspad",2019,36,51.97089,5.95696,35682,87,192,4.413793103,76,3.091954023,14433.698,75.17551042,8686.693,70.62352033,123,1.068820549,0,0,0,0,0,791.4205628,35,0,8014.069707,0.647429623,0.214871728,13.12244898,2.147290522,295.315423,1.223488747,7.880922106,2.061198516,0.737961732,1,4
Netherlands,Arnhem,"Zypsepoort (Willemsplein) fietspaden, van Amsterdamseweg naar Jansbuitensingel, Arnhem",2019,41,51.984915,5.904827,43564,720,1788,4.966666667,665,3.186111111,61775.614,34.55011969,39474.171,35.53030693,1111,1.036861076,0.002237136,5,12,12,1,3690.363522,0,0,215180.8261,0.249017887,0.163278929,23.1774744,3.317536058,300.1208014,0.937564108,24.41809552,3.32539819,0.813282013,15,8
Netherlands,Arnhem,"Velperpoort Fietstunnel, van Ir. J.P. Van Muijlwijkstraat naar Sonsbeeksingel, Arnhem",2019,41,51.985175,5.919766,45427,512,1184,4.625,461,3.052734375,45958.961,38.81669003,29799.682,39.99957315,745,1.048710025,0.003378378,0,2,3,5,1488.241403,63,42,180039.0601,0.243028639,0.130388121,19.77966102,2.600311563,302.049568,0.751664024,28.19454165,0.547089873,0.684670673,26,5
Netherlands,Arnhem,"Nelson Mandelabrug, fietspad",2019,36,51.97811,5.89932,46647,214,505,4.719626168,192,3.037383178,29071.154,57.56664158,17676.601,58.92200333,300,1.066641622,0,0,2,0,0,816.9612048,44,0,15746.29244,0.317981571,0.28995374,10.7244898,3.975556126,296.1037458,1.104536296,11.25837402,2.089962358,0.844557812,3,0
Netherlands,Arnhem,"Velperbinnensingel fietspad, van Nieuwstad naar Koningsplein, Arnhem",2019,41,51.981574,5.913381,47089,747,1779,4.763052209,680,3.109772423,59977.398,33.71410793,37961.923,34.04656771,1115,1.031279277,0.002248454,8,3,16,5,1907.632248,26,84,191548.7817,0.250743183,0.156481644,16.45238095,2.042768341,300.6193708,1.224496766,27.8440597,0.933102623,0.776066601,10,1
Netherlands,Arnhem,"Gele Rijdersplein, van Willemsplein naar Jansplein, Arnhem",2019,41,51.983237,5.906943,51302,779,1908,4.898587933,701,3.139922978,64866.908,33.99733124,41187.462,35.02335204,1176,1.032576389,0.002096436,10,6,64,0,2291.322569,116,17,223132.5374,0.196297584,0.15192648,21.00340136,2.529416457,300.6484112,1.266464045,27.06418638,1.050050828,0.722505553,4,0
Netherlands,Arnhem,"Airborneplein Fietstunnel Stadszijde, van St. Walburgisplein naar Airborneplein, Arnhem",2019,41,51.978715,5.91438,62827,697,1713,4.915351506,633,3.088952654,58016.963,33.86862989,35559.437,34.32378089,1036,1.027847875,0,4,9,0,0,3222.885075,0,0,144889.4559,0.301599717,0.179888947,15.49324324,1.780132935,300.0288584,0.948948325,25.14051819,2.395425385,0.684934736,31,4
Netherlands,Arnhem,"John Frostbrug, beide kanten fietspad",2019,36,51.97207,5.908763,71168,338,808,4.781065089,320,3.177514793,39890.819,49.3698255,24634.656,49.269312,500,1.031563294,0,0,0,0,0,3870.47066,69,0,11346.29601,0.399159249,0.30210726,10.6552901,2.495172336,294.4728039,1.513254903,10.22662226,2.411569735,0.776839169,6,1
USA,Austin,S 1st Total PC,2022,38,30.261995,-97.748399,575,830,2363,5.693975904,754,3.157831325,74627.721,31.58176936,39631.575,31.55380175,1256,1.046953364,0.001692763,3,1,2,0,5147.188767,0,0,67469.47043,0.206982593,0.248084573,140.0797101,6.032994939,300.6113567,2.387804017,0.07464587,0.441610924,0.83988436,9,3
USA,Austin,Mopac at Barton Creek,2022,38,30.242933,-97.810155,581,28,63,4.5,28,3.142857143,10556.711,167.5668413,6679.181,185.5328056,36,1.117091618,0,0,0,0,0,103.8179164,0,0,0,0.589078574,0.182514275,179.9273608,5.667079399,299.1123638,0.964247512,1.538512442,2.745853706,0.646191156,0,0
USA,Austin,Upper Boggy Creek,2022,38,30.279984,-97.708688,676,258,719,5.573643411,227,3.046511628,40741.119,56.66358693,20754.592,56.24550678,369,1.06823864,0.002781641,2,1,0,1,848.3291179,103,53,99290.13715,0.302917036,0.1886643,166.6319613,3.267737261,297.2054217,0.842049027,10.93041757,11.11185202,0.907084796,9,4
USA,Austin,Shoal Creek Trail & 24th St,2022,38,30.286414,-97.75344,803,187,460,4.919786096,148,2.786096257,32957.662,71.6470913,16851.446,71.70828085,235,1.028985022,0,0,0,0,0,821.8951081,53,142,50372.73407,0.482389121,0.164988287,166.1771845,9.535073927,298.4050045,0.836081943,10.25776249,13.68351151,0.782143467,12,0
USA,Austin,Southern Walnut Creek Trail,2022,38,30.262292,-97.684256,1122,171,433,5.064327485,128,2.684210526,18453.564,42.61793072,9288.044,42.60570642,218,1.115612479,0.004618938,0,0,0,0,774.6796342,117,117,34218.90604,0.553326076,0.182875691,140.7451456,2.877026635,298.9398304,1.389529472,9.70292045,10.73593332,0.762719748,9,0
USA,Austin,Shoal Creek Trail & 9th St,2022,38,30.273953,-97.751702,1455,772,2218,5.74611399,687,3.18134715,74206.311,33.45640712,39019.438,33.03932091,1181,1.044816503,0.000450857,0,0,5,1,1171.668512,46,109,102727.7804,0.305448489,0.18169829,153.4205379,7.237106819,301.7122617,0.891008141,9.289688958,11.09553367,0.791808499,6,7
USA,Austin,Manor PC,2022,38,30.284118,-97.720236,1631,289,769,5.321799308,255,2.996539792,42122.327,54.77545774,22219.184,54.32563325,409,1.033573858,0.00260078,0,2,15,1,440.3625969,0,0,97720.21912,0.340566893,0.153863702,188.7897311,3.130384601,299.5063181,0.687393761,18.45099042,12.74361054,0.871584282,14,21
USA,Austin,Northern Walnut Creek Trail,2022,38,30.401918,-97.685215,1909,123,336,5.463414634,113,2.967479675,32217.8,95.88630952,16108.9,95.88630952,168,1.360041039,0.005952381,1,0,0,0,4062.982981,0,0,1639.495022,0.542595614,0.166628815,207.5585366,4.31534277,292.776688,1.7493931,0.034729322,0.045528552,0.869691918,0,0
USA,Austin,Butler Trail : Crenshaw Bridge ,2022,38,30.274733,-97.770673,2503,231,586,5.073593074,208,3.047619048,32604.573,55.63920307,19629.344,60.77196285,323,1.086722007,0.008532423,3,2,0,0,2224.094933,109,0,26865.61312,0.287886446,0.24990019,142.5024155,6.576472775,299.9097012,2.223813545,0.217439065,0.406459621,0.894762291,9,2
USA,Austin,Butler Trail : Longhorn Dam ,2022,38,30.248927,-97.71404,3496,135,361,5.348148148,114,2.881481481,23887.746,66.17104155,12104.631,66.14552459,183,1.152255124,0.03601108,0,0,0,0,2202.65692,0,0,4405.618365,0.192314189,0.289732737,135.4268293,3.307163282,298.3169751,2.114017878,7.984861646,10.5686831,0.822845786,2,0
USA,Austin,Butler Trail: South Lamar,2022,38,30.264368,-97.756035,3707,711,1929,5.426160338,630,2.988748242,60306.083,31.26287351,32329.018,31.47908277,1027,1.078574815,0.003628823,3,1,1,0,5176.690896,70,70,27273.42097,0.314766714,0.224693198,138.6843373,5.818054201,300.2084083,1.997209682,9.594735282,37.15842449,0.944622936,10,3
USA,Austin,Butler Trail: North Congress,2022,38,30.262409,-97.744317,4206,897,2661,5.933110368,839,3.303232999,77188.624,29.00737467,41246.138,28.88385014,1428,1.038770698,0.001878993,4,2,18,1,2653.370802,164,122,105002.3522,0.148522082,0.236009638,147.4430993,8.616094073,299.481593,1.57506181,18.72587627,73.1233155,0.802130651,5,8
USA,Austin,Butler Trail: Boardwalk,2022,38,30.254826,-97.742666,5409,212,552,5.20754717,177,2.886792453,25915.526,46.94841667,13922.795,47.51807167,293,1.124964463,0.005434783,2,0,0,1,1311.169007,0,126,75469.59506,0.187544778,0.259559349,138.9277108,5.314637964,300.0666805,2.488191107,22.42215184,10.37549142,0.806251526,3,1
UK,Birmingham,ULWINE DRIVE,2015,38,52.4148534,-1.972843603,107,462,1152,4.987012987,392,2.954545455,42640.375,37.01421441,23790.09,36.10028832,659,1.057191847,0.005208333,4,12,4,3,0,11,21,131879.6394,0.327954743,0.205749489,185.0034364,3.051109067,301.4608037,0.964670475,23.23239605,5.019553879,0.790477526,13,1
UK,Birmingham,WELLHEAD LANE,2015,38,52.51598443,-1.896213182,134,221,498,4.50678733,176,2.800904977,29488.149,59.2131506,17311.314,59.90074048,289,1.116830581,0.004016064,0,2,0,0,0,54,270,187559.677,0.208278929,0.164176858,101.2318339,2.084268916,300.3951353,1.005375801,21.3582515,8.950612612,0.670141691,6,1
UK,Birmingham,ORPHANAGE ROAD,2015,38,52.52584258,-1.836878516,155,274,626,4.569343066,216,2.689781022,33546.072,53.58797444,18528.825,52.9395,350,1.091920886,0.006389776,8,8,3,2,353.4683098,232,63,166872.3628,0.237172121,0.154637629,123.8644068,2.226631012,301.2575374,0.68973862,17.64617375,13.90928244,0.87225956,14,3
UK,Birmingham,EBROOK ROAD,2015,38,52.51598443,-1.817917203,177,331,699,4.223564955,258,2.697885196,29948.75,42.84513591,17881.218,41.97469014,426,1.055616869,0,0,7,1,4,0,263,82,127455.3367,0.200959956,0.169763802,94.75,2.365844928,300.8350074,0.670227129,2.623187312,6.094439499,0.557681715,14,6
UK,Birmingham,ULWINE DRIVE,2015,38,52.41493437,-1.973181764,189,457,1135,4.967177243,388,2.958424508,42555.41,37.4937533,23743.444,36.52837538,650,1.05710766,0.005286344,4,9,4,1,0,69,95,119935.4811,0.340522193,0.209618212,184.6262976,3.570176417,301.3637093,1.018210827,23.71139018,4.782242504,0.824960225,12,1
UK,Birmingham,BIRMINGHAM CANAL,2015,38,52.4812145,-1.924138761,201,495,1264,5.107070707,425,2.84040404,51928.639,41.08278402,28053.778,41.62281602,674,1.05415013,0,1,4,0,0,1046.720143,246,185,70156.66797,0.468777584,0.184221376,142.0346021,4.016253302,300.3570741,0.515009327,33.26202862,22.30161057,0.772524357,8,1
UK,Birmingham,CLIFTON ROAD,2015,38,52.56191231,-1.832127804,201,226,534,4.725663717,179,2.703539823,29223.263,54.72521161,15516.573,53.69056401,289,1.063969639,0.003745318,6,1,1,0,626.8063026,272,22,38352.88289,0.574675415,0.181547431,120.2214533,6.029864256,297.6887705,0.837509584,9.544722985,5.814609134,0.74069492,3,0
UK,Birmingham,MANOR FARM ROAD,2015,38,52.45459899,-1.851930565,231,176,425,4.829545455,139,2.676136364,28044.319,65.98663294,14270.784,64.57368326,221,1.077420847,0.004705882,0,2,2,0,827.4014675,173,236,185878.3701,0.293616813,0.229524396,114.837931,2.030273261,302.1421284,1.125566852,25.66588379,27.89160446,0.746695491,4,0
UK,Birmingham,PARK ROAD,2015,38,52.56405322,-1.826853053,263,441,1028,4.662131519,353,2.702947846,44942.398,43.71828599,24893.669,42.92011897,580,1.080388333,0.003891051,3,2,4,2,0,24,247,91247.47376,0.429316477,0.213107256,119.8191126,4.549092461,298.4971811,0.808222066,15.82940801,10.29062983,0.780073009,16,1
UK,Birmingham,DEYKIN AVENUE,2015,38,52.51560755,-1.869571346,268,188,462,4.914893617,138,2.585106383,25277.889,54.71404545,12712.801,54.79655603,232,1.131040543,0.008658009,0,0,0,0,1072.88785,109,178,137693.2723,0.293279047,0.237527663,106.3576389,4.967310918,299.9941135,0.999741652,12.21393066,12.15202124,0.759555133,8,0
UK,Birmingham,SMALL HEATH HIGHWAY,2015,38,52.46161022,-1.844180218,278,228,501,4.394736842,177,2.635964912,29771.908,59.42496607,16458.564,58.15746996,283,1.122508637,0.007984032,1,0,0,0,0,197,28,133938.7971,0.361552053,0.236937958,113.1423611,4.064225358,300.416962,1.481944579,8.86668178,4.285119894,0.734805122,4,0
UK,Birmingham,BORDESLEY MIDDLEWAY,2015,38,52.47039541,-1.876358594,311,361,809,4.48199446,299,2.811634349,40404.208,49.94339679,23848.752,50.4201945,473,1.082567979,0.002472188,0,3,1,0,1141.331124,189,53,61853.9459,0.348070242,0.187870357,119.4845361,5.58799659,301.5740711,0.838375141,14.83937012,10.11287776,0.624910733,8,1
UK,Birmingham,MOSELEY ROAD,2015,38,52.4561381,-1.886111092,339,384,896,4.666666667,277,2.505208333,41098.537,45.8689029,20909.666,45.65429258,458,1.036027557,0,8,3,11,4,0,69,116,146356.4261,0.256737674,0.17511321,130.5034483,2.394315503,302.0543664,0.603878037,40.98531596,13.62253568,0.643964525,12,1
UK,Birmingham,BIRMINGHAM AND WARWICK CANAL,2015,38,52.54263132,-1.863416354,353,285,639,4.484210526,215,2.571929825,33024.131,51.68095618,18096.16,52.30104046,346,1.070011993,0.018779343,0,7,0,1,727.7274848,128,133,62835.40525,0.512278501,0.158572888,120.0753425,2.707386184,299.637994,0.262759686,32.39111084,12.02585957,0.97627864,16,1
UK,Birmingham,SEVERN STREET,2015,38,52.47635382,-1.903314191,354,767,1788,4.66232073,612,2.779661017,59836.889,33.46582159,35527.846,34.76305871,1022,1.068040937,0.003355705,12,5,28,4,887.9153407,176,207,173750.4165,0.167330572,0.14780648,138.4689655,7.35743131,300.4052901,0.94292667,54.2514558,83.05041093,0.617684248,26,2
UK,Birmingham,GRAND UNION CANAL,2015,38,52.46045115,-1.837914523,411,201,436,4.338308458,154,2.661691542,22829.464,52.36115596,13036.494,51.32477953,254,1.119629538,0.004587156,0,2,1,0,0,121,201,204170.3319,0.186487865,0.169780943,117.4482759,5.609635841,302.0066044,0.792361902,6.875469632,2.341590405,0.531251443,4,1
UK,Birmingham,BORDESLEY GREEN EAST,2015,38,52.47969526,-1.822958082,471,160,358,4.475,128,2.75,22894.255,63.95043296,12945.579,63.77132512,203,1.081952042,0.022346369,0,2,0,4,576.6956783,48,0,39997.50162,0.559077881,0.243640774,106.1655172,3.951453322,299.327427,0.876554875,28.42246094,18.08660236,0.863342094,6,2
UK,Birmingham,FORT PARKWAY,2015,38,52.51253374,-1.804687551,520,164,374,4.56097561,145,2.969512195,16767.687,44.8333877,10350.161,45.59542291,227,1.045950746,0,0,2,0,0,738.6733192,0,0,771960.786,0.138322331,0.158694253,88.71280277,3.476646074,303.2250375,1.715903169,2.773786105,1.041875214,0.660281964,2,0
UK,Birmingham,MARSH HILL,2015,38,52.52438371,-1.871417244,529,198,474,4.787878788,164,2.863636364,30879.071,65.14571941,16682.322,63.67298473,262,1.049001103,0.004219409,0,2,0,1,621.800279,164,11,68833.47517,0.467932859,0.178511758,104.200692,2.007218687,299.1188252,0.287455475,25.30397461,10.17093059,0.789277498,18,4
UK,Birmingham,BRISTOL ROAD,2015,38,52.44177111,-1.93797564,543,530,1275,4.811320755,437,2.830188679,46721.531,36.64433804,26228.619,36.12757438,726,1.070483377,0.004705882,10,8,1,3,1048.79535,94,0,136037.2553,0.200285542,0.171348545,143.4493243,2.224889813,302.8412915,1.07812292,21.8098584,11.36453575,0.567372312,11,2
UK,Birmingham,PERSHORE ROAD,2015,38,52.46084539,-1.902391464,609,276,692,5.014492754,215,2.764492754,34877.306,50.40073121,17623.485,49.50417135,356,1.02387959,0,0,7,0,0,305.1053018,54,200,57178.43066,0.588847992,0.180093216,115.8225256,2.720652483,299.559407,0.404334715,24.83260742,20.94038568,0.901029984,4,1
UK,Birmingham,NEW TOWN ROW,2015,38,52.49031718,-1.895080502,615,423,1000,4.728132388,375,2.962174941,49457.997,49.457997,29550.569,50.68708233,583,1.047014641,0.003,1,3,5,2,1373.809705,0,220,214338.6801,0.141031209,0.1127788,115.380137,3.131154102,301.6767811,1.031998054,13.08198746,4.91493483,0.447692973,21,6
UK,Birmingham,FAZELEY STREET,2015,38,52.47989927,-1.886859664,616,533,1268,4.757973734,441,2.90619137,45866.341,36.17219322,25968.779,35.14043166,739,1.046391147,0.001577287,1,1,0,0,413.3760005,56,158,125512.2071,0.14660437,0.106438648,109.965035,4.606794294,302.4641949,1.350934556,8.412757084,10.29029405,0.578736219,5,0
UK,Birmingham,GRAND UNION CANAL,2015,38,52.47302949,-1.876410102,631,346,812,4.693641618,287,2.823699422,42533.505,52.38116379,24239.418,52.58008243,461,1.093511841,0.002463054,2,2,2,0,1021.343033,0,0,83100.81656,0.308910331,0.200879981,113.4880546,4.346434807,302.1067888,0.913692732,16.57937387,12.46571062,0.6542715,21,6
UK,Birmingham,GRAND UNION CANAL,2015,38,52.47758152,-1.879386235,686,266,600,4.511278195,215,2.740601504,34615.399,57.69233167,19295.639,56.91928909,339,1.081164077,0.001666667,0,4,2,0,742.176922,236,236,225070.7554,0.149623499,0.131971196,106.4489796,1.865124509,302.4812769,1.12117065,6.347855788,4.481845193,0.56335928,5,2
UK,Birmingham,ELMSTEAD AVENUE,2015,38,52.4636722,-1.769063574,687,104,267,5.134615385,90,2.865384615,21526.874,80.62499625,10844.937,80.33286667,135,1.036940481,0.007490637,0,0,0,0,1647.433949,185,216,27594.03765,0.647327168,0.171474131,96.08532423,2.994230456,298.7487245,1.014546051,17.61433645,7.882369956,0.943587243,2,1
UK,Birmingham,BRISTOL ROAD,2015,38,52.44686698,-1.929273505,768,563,1432,5.087033748,435,2.756660746,47696.424,33.30755866,25255.196,33.53943692,753,1.055063804,0.00349162,4,2,2,4,1200.83769,211,122,127360.3462,0.349404958,0.215627254,127.3728814,4.684262528,301.6962925,1.689652211,52.04528373,53.1465569,0.827666079,16,2
UK,Birmingham,VALENTINE ROAD,2015,38,52.43809932,-1.890599936,828,149,331,4.44295302,107,2.476510067,21734.649,65.66359215,11084.525,65.20308824,170,1.137512342,0.012084592,3,2,9,1,21.95227193,244,270,111409.4879,0.429234355,0.207234397,158.4305556,4.103103124,300.5778061,0.976010393,33.79765625,14.73484159,0.818309695,18,0
UK,Birmingham,PENNS LANE,2015,38,52.53482941,-1.810662654,835,204,472,4.62745098,138,2.450980392,21514.3,45.58114407,10757.15,45.58114407,236,1.072508791,0,0,4,0,0,808.8741592,0,171,30021.69504,0.636179349,0.169785771,98.53125,4.505289619,297.6426316,0.788788204,11.67559362,9.921487022,0.792583307,4,0
UK,Birmingham,WYLDE GREEN ROAD,2015,38,52.54263132,-1.807224588,851,187,461,4.930481283,156,2.802139037,25183.829,54.62869631,13053.775,53.28071429,245,1.060446421,0,0,0,0,0,1272.10247,153,107,2120.179571,0.721374044,0.067325872,101.9175258,5.171964013,296.5170356,0.758450615,4.185050049,4.120780385,0.996360411,0,0
UK,Birmingham,ICKNIELD PORT ROAD,2015,38,52.48485375,-1.936531615,873,256,629,4.9140625,206,2.6640625,35126.573,55.84510811,17846.25,54.91153846,325,1.060952143,0.00317965,1,7,1,2,1974.415887,38,203,75676.52221,0.496789695,0.212534788,156.4677966,4.177195583,300.0472535,1.579818363,33.58675049,18.00182346,0.795204292,9,1
UK,Birmingham,SOHO ROAD,2015,38,52.50431866,-1.93980377,887,218,508,4.660550459,158,2.555045872,30938.984,60.90351181,15872.709,60.58285878,262,1.054098348,0.007874016,0,7,4,3,0,9,234,132205.21,0.268758955,0.175477799,147.8122867,3.57593195,300.8944235,0.429554516,59.16189236,29.84039672,0.610956865,20,2
UK,Birmingham,EBROOK ROAD,2015,38,52.55640941,-1.813372358,914,287,674,4.696864111,200,2.459930314,32788.25,48.64725519,16419.458,48.57827811,338,1.072959918,0.005934718,0,0,0,0,1985.22737,200,54,26675.71704,0.612153526,0.132757607,107.100346,2.00870938,297.5138262,0.934940686,19.7404966,13.90039604,0.763287512,4,0
UK,Birmingham,BIRMINGHAM AND FAZELEY CANAL,2015,38,52.49695484,-1.879333372,1048,353,775,4.390934844,271,2.614730878,36956.849,47.68625677,20170.059,46.47479032,434,1.072975548,0.007741935,1,3,2,1,46.57021441,246,272,213993.4329,0.200319876,0.180943412,102.3745704,3.030300486,300.9501181,0.548596377,4.934347299,1.441592047,0.573793914,1,1
UK,Birmingham,SHERLOCK STREET,2015,38,52.46752947,-1.897136352,1137,642,1564,4.872274143,526,2.862928349,56813.286,36.32563043,31698.327,36.02082614,880,1.05611313,0,0,7,0,1,943.803466,14,22,90108.93115,0.279146233,0.168762899,112.5190311,3.33075494,301.6437765,0.462825566,36.66846381,32.90753785,0.723135203,27,0
UK,Birmingham,PERSHORE ROAD SOUTH,2015,38,52.4103853,-1.929067006,1161,255,596,4.674509804,199,2.654901961,28756.483,48.24913255,15314.558,47.26715432,324,1.052450096,0.003355705,0,2,0,0,740.5793943,94,26,31914.96255,0.658712923,0.202588249,145.1245675,7.515961233,298.1711451,1.046289298,5.520688375,6.307167865,0.943285678,3,1
UK,Birmingham,HAZELWELL ROAD,2015,38,52.42689285,-1.918010899,1524,295,689,4.671186441,223,2.576271186,35747.208,51.8827402,18492.464,50.943427,363,1.047670578,0,0,0,0,0,858.851393,213,9,84120.1007,0.478508667,0.225717442,127.5324232,2.695554411,300.6017491,1.06409017,22.23491301,9.01403976,0.869438423,3,0
UK,Birmingham,HAGLEY ROAD,2015,38,52.47183214,-1.929277854,1589,374,783,4.187165775,300,2.665775401,35369.391,45.17163602,21495.719,45.15907353,476,1.082404706,0.002554278,3,4,8,1,0,55,176,97786.12277,0.389879783,0.211831223,162.8373702,1.831440526,300.5623915,0.865475726,14.80347334,9.877112622,0.711372769,17,5
UK,Birmingham,NEWHALL STREET,2015,38,52.48316088,-1.905331475,1592,562,1281,4.558718861,490,2.950177936,50821.752,39.67349883,31945.691,40.43758354,790,1.048324561,0,8,9,20,3,1096.381167,246,213,217371.5887,0.131302177,0.117156771,135.9206897,9.139753234,301.2877425,1.079213834,42.24697876,53.35708872,0.703173734,8,6
UK,Birmingham,BIRMINGHAM CANAL,2015,38,52.47913508,-1.919872486,1648,632,1548,4.898734177,528,2.786392405,60123.576,38.83951938,33172.485,39.21097518,846,1.056270945,0,0,2,3,2,2016.902853,0,227,112734.9973,0.364084234,0.208742983,141.0684932,4.316514217,300.6355334,0.578912935,55.81586163,39.71944396,0.758588293,17,1
UK,Birmingham,HIGH STREET,2015,38,52.43386722,-1.892963714,1699,190,429,4.515789474,143,2.557894737,26620.598,62.05267599,13970.656,61.81706195,226,1.098558265,0.004662005,9,10,20,2,108.0486311,246,30,184979.0863,0.222019784,0.163439669,158.8615917,2.0834358,302.7353683,0.768813953,26.38118652,13.82935802,0.629978729,10,1
UK,Birmingham,WORCESTER AND BIRMINGHAM CANAL,2015,38,52.4724676,-1.911522653,2110,454,1081,4.762114537,374,2.790748899,45796.031,42.36450601,25476.986,42.46164333,600,1.055330841,0.001850139,4,5,1,1,173.9140851,0,173,127206.0321,0.305902381,0.210766277,145.6067797,4.217150794,298.9812826,1.382464702,62.34687862,35.23601712,0.673633619,25,4
UK,Birmingham,HURST STREET,2015,38,52.4729938,-1.895371869,2127,684,1520,4.444444444,542,2.777777778,49968.309,32.8738875,30592.903,33.61857473,910,1.053411872,0.001315789,6,5,46,4,841.3099856,242,46,234174.4617,0.101780403,0.057078302,114.7823129,4.423217973,302.977779,0.660492397,48.75773564,117.3243576,0.571000908,15,10
UK,Birmingham,HARBORNE ROAD,2015,38,52.47245487,-1.919001286,2328,493,1088,4.413793103,394,2.701825558,45863.372,42.15383456,27529.787,43.08260876,639,1.0672399,0.001838235,11,20,3,1,1723.516916,207,0,187362.1122,0.199267303,0.167425176,160.2210884,4.610188824,300.4311202,0.535646458,25.07076172,13.87998514,0.636780829,27,1
UK,Birmingham,LONGMORE STREET,2015,38,52.46305847,-1.893732067,2584,439,1110,5.056947608,377,2.897494305,48255.211,43.47316306,25818.048,43.39167731,595,1.035267994,0,0,5,0,0,741.6941837,171,30,60899.95813,0.502456362,0.174268159,107.9728814,2.244226529,300.7457386,0.472769495,40.07985746,18.26872516,0.848469023,13,3
UK,Birmingham,WORCESTER AND BIRMINGHAM CANAL,2015,38,52.44088027,-1.935939153,2700,524,1262,4.816793893,428,2.826335878,46837.418,37.11364342,25968.521,36.31960979,715,1.060161212,0.004754358,7,5,0,1,679.089648,127,197,163922.541,0.305535446,0.189864907,143.1305842,2.336795027,302.2460538,0.663796009,30.04935484,29.2078668,0.744125049,7,0
UK,Birmingham,GOOCH STREET,2015,38,52.46699555,-1.893192733,3082,495,1243,5.022222222,415,2.84040404,51006.567,41.03504988,27361.899,41.14571278,665,1.041925867,0,4,3,1,1,321.1851341,186,101,125009.837,0.315410882,0.194205283,109.2525597,2.342157475,301.9473599,0.634861884,23.17481232,12.27453412,0.696920412,11,0
UK,Birmingham,REA VALLEY CYCLEWAY,2015,38,52.44673749,-1.91051463,3279,227,573,5.04845815,192,2.788546256,33345.657,58.19486387,16861.83,57.54890785,293,1.183856601,0.029668412,0,1,2,1,1069.112185,246,0,47098.80589,0.605845032,0.165351618,119.449827,2.782497504,297.9490721,1.207939101,9.415057147,8.675077188,0.78230257,3,0
USA,Boulder,Bikelane on Highway 36 near Foothills Trail,2022,38,40.070314,-105.283355,222,141,460,6.524822695,141,3.524822695,13446.849,29.23228043,6751.61,29.22774892,231,1.045636864,0,0,0,0,0,736.3327142,0,108,0,0.30000121,0.080530965,1691.339726,5.568471415,297.2311037,0.56068176,0.013933531,0.035006908,0.633957586,0,0
USA,Boulder,Baseline Rd & Inca Pkwy,2021,23,40.00008249,-105.2401373,454,213,511,4.798122066,186,2.929577465,32816.95,64.22103718,19003.735,65.08128425,292,1.089349916,0.007827789,0,5,0,0,479.827794,0,0,89210.92231,0.380177014,0.170263596,1621.349727,2.671052561,294.7887432,0.912844962,20.1577056,14.86014253,0.826963671,8,4
USA,Boulder,Baseline Rd W of Inca Pkwy,2022,38,40.00016,-105.240997,725,180,437,4.855555556,159,2.961111111,32007.043,73.24266133,18422.315,74.58427126,247,1.084801426,0.009153318,0,4,0,0,721.4534963,75,75,81784.45011,0.402518232,0.160353389,1621.506887,2.706350445,294.5373147,0.79563043,16.3200887,14.08530317,0.829773601,12,5
USA,Boulder,"SHOULDER - SH 119, DIAGONAL HWY NE/O JAY RD",2013,33,40.0541282,-105.2290091,1449,18,35,3.888888889,16,3.055555556,6373.733,182.1066571,4332.455,206.307381,21,1.003789571,0,0,0,0,0,0,134,99,0,0.402096273,0.116893424,1605.495935,3.993301947,294.7891906,0.838836001,0.264802008,0.446230649,0.664506758,0,0
USA,Boulder,Folsom St S of South St,2022,38,40.019254,-105.263154,2013,717,1850,5.160390516,654,3.135285914,68527.993,37.04215838,39145.518,36.44834078,1074,1.070137979,0.002162162,2,4,2,1,274.4876863,134,3,134702.8501,0.26243074,0.172082507,1620.399449,2.049712665,296.0492527,0.609154639,30.50969023,18.2166708,0.675792725,14,12
USA,Boulder,US 36 BIKEWAY TRAIL SE/O TABLE MESA DR,2020,31,39.98348156,-105.2293875,2243,123,276,4.487804878,100,2.87804878,15039.293,54.49019203,9926.84,60.5295122,164,1.185728903,0.02173913,1,1,0,1,767.1254429,36,106,16718.56834,0.273625916,0.138254241,1633.663014,1.830899685,295.3389096,0.949758913,0,0,0.807936416,3,0
USA,Boulder,Folsom St N of Pine St,2022,38,40.023943,-105.26378,2316,491,1316,5.360488798,445,3.136456212,55969.899,42.53031839,30108.853,41.13231284,732,1.078493522,0.006079027,4,0,0,0,516.5711754,163,125,66208.045,0.402889084,0.162058963,1623.102981,4.600013762,295.4360912,0.724780226,22.5705178,17.30732221,0.748645382,19,10
USA,Boulder,Folsom St S of Arapahoe Ave,2022,38,40.012659,-105.263059,2506,742,1982,5.342318059,655,3.018867925,72786.444,36.72373562,39678.517,36.80752968,1078,1.053376425,0.002018163,8,7,12,0,1151.095828,117,75,102813.3713,0.342567423,0.244002527,1620.49589,3.328269877,295.3090445,1.088433573,17.97086289,13.51809928,0.841087256,4,1
USA,Boulder,Walnut St & 13th St,2021,23,40.017134,-105.278319,2700,520,1343,5.165384615,456,3.046153846,58802.488,43.78442889,33308.501,43.654654,763,1.057506991,0.00446761,24,22,30,1,3482.194562,134,3,179555.4582,0.135219774,0.15781823,1636.578512,2.841309013,296.053181,1.068071391,3.997538847,17.00468162,0.641130944,9,14
USA,Boulder,13th St N of Walnut St,2019,38,40.017338,-105.278414,3119,532,1371,5.154135338,469,3.04887218,59873.354,43.67130124,33911.022,43.58743188,778,1.058947661,0.004376368,24,23,31,1,3433.534428,134,0,177103.7642,0.126114703,0.14734128,1636.86612,2.721318333,296.1486073,0.995342468,3.862249487,17.01764478,0.602385,9,14
USA,Boulder,Folsom St & South St,2021,23,40.01968578,-105.2630954,3681,692,1818,5.25433526,637,3.171965318,67430.79,37.09064356,38330.823,36.40154131,1053,1.070874678,0.00220022,3,5,1,1,311.5331767,0,0,124075.6034,0.261877754,0.174842342,1620.403846,2.123672575,296.0416091,0.605934595,30.7890736,18.40718954,0.663808963,14,10
USA,Boulder,Folsom St & Pine St,2021,23,40.023398,-105.263612,3960,508,1366,5.377952756,464,3.143700787,57423.761,42.03789239,31049.007,40.69332503,763,1.076407747,0.005856515,4,2,0,0,637.1356488,3,0,72405.87565,0.368879692,0.170706005,1621.789041,3.307424676,295.6315745,0.779969264,24.45958934,19.53699623,0.743528753,21,15
USA,Boulder,30th St & Colorado Ave,2021,23,40.007347,-105.253387,5896,534,1352,5.063670412,438,2.807116105,59054.874,43.67964053,31733.183,44.1966337,718,1.105626655,0.00739645,7,13,0,0,0,0,0,92199.72219,0.307172813,0.169530285,1617.784153,3.538989732,296.2946185,0.933809671,53.09731158,29.2003253,0.783082279,8,5
UK,Cambridge,"Newmarket Road, Stow cum Quy (Quy to Bottisham)",2018,38,52.219274,0.236246,28,14,34,4.857142857,10,2.857142857,2947.554,86.69276471,1473.777,86.69276471,17,1.07474605,0,2,0,1,0,739.2657422,86,107,7481.243796,0.472265838,0.114785883,19.16262976,1.675548148,272.5166246,0.19665652,0.544746399,0.246490816,0.785959507,2,0
UK,Cambridge,Swaffham Bulbeck Fen,2018,38,52.264448,0.253632,38,11,22,4,9,2.818181818,3209.848,145.9021818,1604.924,145.9021818,11,1.054628322,0,0,0,0,0,586.1264652,122,124,495.1656673,0.567358101,0.109040881,2.780405405,1.464358488,272.4467452,0.128417762,0.028443725,0.003840166,0.906114918,0,0
UK,Cambridge,A505 Pampisford ,2018,38,52.113228,0.191468,56,40,90,4.5,27,2.45,9150.824,101.6758222,4575.412,101.6758222,45,1.019387192,0,0,0,0,0,650.1337024,105,105,6144.269156,0.532543676,0.102217648,27.55363322,1.459272565,272.9217953,0.223414959,0.146537817,0.03667201,0.875393184,0,0
UK,Cambridge,Whittlesford Church,2018,38,52.11712,0.149897,104,34,80,4.705882353,25,2.529411765,6465.652,80.82065,3232.826,80.82065,40,1.06844595,0,0,0,0,0,731.9436993,98,105,3986.108067,0.596078121,0.135019842,23.67697595,2.903745501,272.9774424,0.228779089,2.101916449,2.334576619,0.849411074,0,0
UK,Cambridge,A1307 Copley Hill Farm ,2018,38,52.150449,0.189422,134,42,108,5.142857143,35,2.80952381,7995.2,74.02962963,3997.6,74.02962963,54,1.047002138,0,0,0,0,0,738.5813071,86,80,6820.423276,0.515259808,0.123276943,37.26845638,3.652949296,272.9051761,0.150223423,0.579816324,0.568331224,0.841089629,0,0
UK,Cambridge,"Cambridge Rd, Fulbourne",2018,38,52.182216,0.197185,200,171,421,4.923976608,126,2.65497076,19191.732,45.58606176,9698.006,44.89817593,216,1.047681919,0,0,0,0,0,738.7518913,0,124,0,0.354811904,0.094222692,22.04123711,3.227621955,272.4566151,0.234103283,0.372437874,0.130399854,0.642305308,0,0
UK,Cambridge,"Thompsons Lane, Cambridge",2018,38,52.211479,0.118697,539,432,1043,4.828703704,342,2.729166667,39875.953,38.23197795,21112.606,37.36744425,565,1.05046803,0.000958773,11,2,8,0,1474.940147,55,44,86367.79204,0.449218009,0.221497987,12.04467354,3.152710743,273.6139036,0.230593476,31.4415464,23.61366147,0.876376508,5,1
UK,Cambridge,Huntingdon Road- one way,2018,38,52.218851,0.101971,670,145,349,4.813793103,114,2.668965517,22247.781,63.7472235,11321.756,63.60537079,178,1.065351185,0,1,3,0,0,185.0573428,95,90,59098.0144,0.51669567,0.145666091,22.63230241,2.087152944,272.8100301,0.182117625,13.31366419,13.29164694,0.886535085,7,0
UK,Cambridge,Impington,2018,38,52.24227,0.110395,1055,372,897,4.822580645,267,2.543010753,36063.488,40.20455741,19073.675,41.55484749,459,1.092986705,0.004459309,3,5,1,1,854.6272403,130,36,57670.09512,0.496175965,0.207708567,17.83561644,2.958682133,272.7766105,0.265309262,11.53939585,5.896797943,0.849669151,13,0
UK,Cambridge,"Trumpington Road, Cambridge (New Bit)",2018,38,52.191939,0.123641,1359,232,612,5.275862069,194,2.870689655,31932.167,52.17674346,16710.117,52.21911562,320,1.047059725,0.001633987,0,4,0,0,1682.286693,77,115,38215.35223,0.601101315,0.149050498,14.75426621,1.731368067,272.9231057,0.143855269,10.08207214,6.112882243,0.821621944,10,1
UK,Cambridge,"Barton Road, Cambridge",2018,38,52.196812,0.105942,1378,190,457,4.810526316,145,2.615789474,26259.134,57.45981182,13304.695,56.13795359,237,1.039526913,0,1,3,1,0,1479.882072,128,105,71300.53444,0.570500901,0.176540514,14.93581081,1.64170767,272.9568427,0.174969332,20.52725098,14.36317547,0.878677873,13,0
UK,Cambridge,"Cutter Ferry Bridge, Cambridge",2018,38,52.21029,0.134329,1554,625,1562,4.9984,508,2.7712,59665.321,38.19802881,31862.912,38.34285439,831,1.045640882,0,4,1,0,0,2884.604838,116,119,89068.76514,0.453441193,0.197685783,10.37370242,2.761349739,273.2010846,0.168442092,28.39591393,9.517502195,0.813499264,3,0
UK,Cambridge,"Garrett Hostel Lane, Cambridge",2018,38,52.205732,0.111859,1728,219,523,4.776255708,165,2.666666667,25372.87,48.51409178,13032.512,47.73813919,273,1.03837087,0,3,0,0,0,1387.086552,124,1,30856.49103,0.679801166,0.153628783,13.20819113,2.63366259,273.050128,0.123396331,22.36848704,16.30569457,0.764861438,0,0
UK,Cambridge,Hills Road- Inbound,2018,38,52.181153,0.140682,1841,259,598,4.617760618,187,2.667953668,29054.793,48.58661037,15803.414,48.77596914,324,1.049448964,0.003344482,0,2,0,0,1474.646402,124,77,76535.89321,0.549293871,0.222103906,18.15932203,1.517705521,273.021236,0.189236867,11.06194214,6.2160189,0.967439321,1,2
UK,Cambridge,"Coton Path, Adams Rd, Cambridge",2018,38,52.206958,0.098808,1850,147,350,4.761904762,113,2.639455782,18241.665,52.11904286,9130.073,51.87541477,176,1.0467113,0,5,0,0,0,420.0886589,0,57,20773.99657,0.564539576,0.150200142,14.63013699,2.080614038,272.9763233,0.150575733,4.384668895,4.74666285,0.836551286,0,0
UK,Cambridge,"Carter Bridge, Cambridge",2018,38,52.19622,0.137012,1937,443,1059,4.781038375,336,2.591422122,40759.591,38.48875449,21194.982,38.12047122,556,1.094578216,0.006610009,5,0,5,3,1070.448115,118,105,104673.5509,0.244660849,0.17685648,18.17525773,1.201462247,272.9558097,0.420105236,36.45960377,6.343741361,0.793977762,11,0
UK,Cambridge,"Riverside Bridge, Cambridge",2018,38,52.214434,0.141639,2450,610,1444,4.73442623,440,2.532786885,51534.546,35.68874377,26430.694,35.76548579,739,1.075314921,0.002770083,7,0,0,0,726.853179,107,106,76103.87728,0.460448338,0.220037068,9.663230241,1.400781033,273.1748146,0.158223162,34.17771484,20.19646841,0.879692934,15,0
UK,Cambridge,"Stourbridge Common, Cambridge",2018,38,52.214829,0.144792,2454,562,1314,4.676156584,400,2.496441281,50699.308,38.58394825,26014.401,38.42599852,677,1.095146143,0.00456621,2,0,0,0,1369.617832,113,69,65737.10849,0.528709136,0.192790615,9.979661017,1.775423527,273.0281357,0.341444297,28.10722747,20.25354565,0.850128812,7,0
UK,Cambridge,Newtown,2018,38,52.189285,0.133858,2489,381,958,5.028871391,292,2.666666667,41583.101,43.40615971,21394.863,43.39728803,493,1.072655594,0.002087683,9,3,8,4,1224.060903,85,76,169986.7786,0.22895093,0.163198056,18.19931271,1.481199317,272.1662446,0.613268944,26.42731585,31.73823643,0.614330409,3,1
UK,Cambridge,"Jubilee Path, Stourebridge Common, Cambridge",2018,38,52.217019,0.146394,3155,459,1037,4.518518519,318,2.440087146,45588.976,43.96236837,23326.54,43.43862197,537,1.09410955,0.005785921,0,0,1,1,1564.082078,85,78,30687.03893,0.576976731,0.163580275,8.144781145,1.794843353,273.2716656,0.318567775,17.39138681,19.45594978,0.867173743,4,0
USA,Cary,"Olive Chapel Rd, Bicycles (Q2)",2022,6,35.736607,-78.891288,123,263,675,5.133079848,207,2.83269962,32239.387,47.76205481,17108.474,48.05751124,356,1.112590619,0.005617978,0,0,0,1,0,0,5,58932.62457,0.357890132,0.210756305,106.9663212,3.940148789,294.7435542,1.784962973,3.048925781,4.519079908,0.817152605,3,1
USA,Cary,"Black Creek Greenway, Bicycles (Q2)",2022,6,35.782098,-78.81108,149,250,654,5.232,210,2.96,40121.402,61.34770948,21268.501,60.25071105,353,1.080141413,0.002832861,2,0,2,0,2092.757326,189,189,38731.50065,0.574958516,0.191970736,142.0542636,3.472245238,293.1790649,1.322692311,10.33525085,10.98274396,0.659644617,3,0
USA,Cary,"Beaver Creek Greenway, Bicycles (Q2)",2022,6,35.73097,-78.881273,180,96,250,5.208333333,75,2.84375,19591.614,78.366456,9795.807,78.366456,125,1.138915869,0,0,0,0,0,842.7444625,5,5,57236.82546,0.593359515,0.151395522,100.1709845,4.438034803,293.7945736,0.811614044,21.57107821,4.541199909,0.673177998,4,1
USA,Cary,"Louis Stephens Dr, Bicycles (Q2)",2022,49,35.806837,-78.861751,219,111,316,5.693693694,99,3.117117117,22376.405,70.81140823,11366.699,70.16480864,162,1.217009287,0.012345679,0,0,0,0,1076.296769,187,0,42449.29504,0.558417255,0.160990617,115.59375,3.954370275,294.7534091,0.841712067,7.398490504,4.998819731,0.768443083,3,2
USA,Charlotte,Stonewall St,2022,6,35.215308,-80.839203,96,791,2156,5.451327434,714,3.12136536,73998.028,34.32190538,43206.124,36.49165878,1184,1.079603671,0.002533784,1,0,0,0,361.6771022,209,213,38517.83772,0.34870538,0.222328289,206.2820513,6.371204121,292.5820913,0.87886237,3.305949184,4.516195689,0.763968017,10,7
USA,Charlotte,"Pecan Ave, Bicycles (Q2)",2021,49,35.218735,-80.819064,122,447,1204,5.387024609,372,2.964205817,49429.889,41.05472508,25670.667,40.5539763,633,1.094289137,0.001579779,0,0,0,0,208.297278,0,156,105062.5061,0.362654987,0.232920093,223.797954,3.689009863,292.1790064,0.938497734,24.75886056,36.40112442,0.750333478,3,7
USA,Charlotte,"Selwyn Ave, Bicycles (Q2)",2022,6,35.179017,-80.837083,174,147,339,4.612244898,117,2.659863946,21853.891,64.46575516,11730.088,64.09884153,183,1.073836121,0.005464481,0,0,0,0,685.3871947,226,274,69330.29369,0.558010974,0.171001582,212.4820513,4.251507835,290.8135296,0.497148355,15.87482368,8.52031109,0.671744291,7,5
USA,Dallas,Trinity strand,2021,38,32.798167,-96.823129,57,558,1431,5.129032258,501,3.150537634,60799.695,42.48755765,36820.375,43.67778766,843,1.087442964,0.002372479,0,0,4,1,0,1,188,120990.5344,0.21476554,0.175689226,128.2914573,2.504363506,297.5059652,0.724087699,6.589979874,19.28218913,0.654005742,12,6
USA,Dallas,Everglade Park Loop,2020,38,32.786163,-96.698952,146,98,238,4.857142857,90,3.081632653,18974.193,79.7235,10316.076,79.9695814,129,1.043164321,0,0,0,0,0,0,224,198,69099.40958,0.406888623,0.172303499,161.4362745,3.349108433,297.7350211,1.004690233,12.18530622,5.11358686,0.877498064,10,7
USA,Dallas,Coombs Creek Trail,2019,38,32.76284,-96.842438,149,111,271,4.882882883,104,3.036036036,21143.994,78.02211808,11331.424,76.56367568,148,1.167392526,0.006756757,0,0,0,0,776.1422262,188,245,60024.75434,0.491108458,0.202587176,153.5376884,8.934847181,295.9617926,1.130582,6.787452916,5.061016191,0.692104293,7,0
USA,Dallas,Gateway Park Loop,2020,34,32.757809,-96.700378,220,48,109,4.541666667,43,2.958333333,10774.794,98.8513211,6069.391,101.1565167,60,1.072796671,0.016666667,0,0,0,0,0,0,201,31694.93889,0.550867037,0.144393668,138.8154613,6.542846342,294.7305175,0.661672193,4.43167962,5.817991187,0.763562771,4,0
USA,Dallas,Trinity at Wycliff,2021,38,32.797501,-96.835358,238,239,544,4.552301255,195,2.853556485,23731.583,43.62423346,14361.256,44.60017391,322,1.065381673,0,0,0,2,0,0,133,0,192725.9684,0.193560252,0.18637933,127.3358209,2.139223937,298.7247959,0.73638592,0.059580539,0.07234587,0.666958186,15,7
USA,Dallas,Kiest Park Conservation Dr,2021,38,32.706669,-96.853722,1268,110,278,5.054545455,100,3.154545455,20809.895,74.85573741,12486.319,78.03949375,160,1.069555597,0,0,0,0,0,68.6237529,218,0,3693.877089,0.471447669,0.177151547,180.8472906,5.38437166,296.3587469,1.055366466,0,0,0.895624831,4,1
USA,Dallas,Kiest Park Loop,2021,38,32.714075,-96.849678,1270,96,292,6.083333333,95,3.4375,28367.952,97.15052055,14183.976,97.15052055,146,1.015407039,0,0,0,0,0,583.3428778,206,0,44474.99743,0.38888554,0.102725084,187.9572864,2.478183131,297.4227986,0.155640726,17.54718512,17.75045501,0.873080995,6,4
USA,Dallas,Katy along US 75,2022,38,32.830233,-96.781048,1890,387,1096,5.664082687,352,3.263565891,56869.075,51.88784215,31191.479,52.51090741,594,1.023943443,0,1,0,0,0,509.9963061,0,0,84444.23807,0.321831162,0.191296644,176.020202,4.501357367,297.1213913,0.347728259,13.97667975,16.38252023,0.781504417,11,6
USA,Dallas,Santa Fe,2021,38,32.785942,-96.769043,2315,527,1347,5.111954459,455,3.066413662,53141.725,39.45191166,31081.756,40.84330618,761,1.044968381,0.003942181,0,0,0,0,1229.827158,150,30,115323.7635,0.19416837,0.148094106,146.3042394,2.11565993,298.1301952,0.735175822,5.270588345,13.56831555,0.641016492,18,2
USA,Dallas,Santa Fe at Beacon,2021,38,32.798271,-96.75547,2838,189,480,5.079365079,173,3.232804233,33445.451,69.67802292,18713.468,67.31463309,278,1.014379268,0,0,0,0,0,1366.806992,224,167,82562.17021,0.379496459,0.13477713,157.3275434,2.784556965,298.3876831,0.294566033,34.74287245,22.71339678,0.73982903,17,18
USA,Dallas,Katy Trail,2021,38,32.793568,-96.811821,3331,759,2108,5.554677207,668,3.14229249,72858.995,34.56309061,40895.618,35.84190885,1141,1.044164814,0,0,0,0,0,235.5414075,0,170,127655.1879,0.210148625,0.19508199,137.9496222,8.722851723,297.7227909,0.85630355,9.479239328,12.65216897,0.694986795,8,3
USA,Dallas,Santa Fe at Glasgow,2021,38,32.806126,-96.747482,3332,164,438,5.341463415,137,2.981707317,28835.829,65.83522603,14579.338,65.37819731,223,1.025046986,0,1,0,0,0,753.1036129,182,125,91045.3733,0.378981864,0.160579084,167.6197531,2.805392504,297.8464981,0.855643795,19.15428162,13.10176524,0.832498776,5,2
USA,Dallas,Katy Trail at Cedar,2019,38,32.802605,-96.80481,4565,936,2708,5.786324786,831,3.196581197,85402.243,31.53701736,44890.342,31.41381526,1429,1.037620551,0.00069979,0,0,2,0,755.6499838,135,0,150968.5528,0.296304212,0.202720206,145.7093596,5.679386379,296.7058731,0.89336756,29.70185547,44.9756327,0.786289127,13,11
USA,Dallas,Santa Fe at Winstead,2021,38,32.8148,-96.729424,6339,316,865,5.474683544,284,2.993670886,32592.284,37.67894104,17489.612,38.43870769,455,1.090374133,0.002197802,1,0,2,3,1096.002591,227,201,48619.46115,0.430790393,0.219562963,137.2363184,2.701828085,295.9382245,1.711097644,12.47890015,18.42764157,0.743083668,1,0
USA,Dallas,White Rock Lake Trail,2018,38,32.817978,-96.719299,8738,122,319,5.229508197,115,3.295081967,21071.23,66.05401254,12658.946,68.42673514,185,1.02764872,0.005405405,0,0,0,0,0,202,201,17485.89821,0.243241198,0.394096131,149.9875,6.168658181,293.9927317,1.550084644,3.734313702,2.591788705,0.802483559,4,7
USA,Denver,WB W 13th Ave between Fox St & Eliati St,2019,20,39.736944,-104.995278,149,1491,4407,5.911468813,1375,3.336016097,116679.587,26.4759671,64636.059,26.69808302,2421,1.043728388,0.002496029,2,4,3,1,1626.441969,208,0,161354.8603,0.162246067,0.147628856,1599.669377,4.923166836,296.9431721,0.88863564,37.16844593,65.03146668,0.554570162,8,11
USA,Denver,Mariposa St between 9th Ave & 10th Ave,2019,20,39.73061333,-105.0027467,421,990,2947,5.953535354,869,3.2,79236.445,26.88715473,41493.296,26.89131303,1543,1.037855283,0.001017984,2,6,2,1,767.2858764,24,7,120585.2804,0.190909173,0.119031753,1601.775342,2.419995518,298.9687079,0.729355529,31.72497559,40.86400793,0.666523394,5,9
