country,city,espg,name,year,week,latitude,longitude,counts_week,n,m,k_avg,edge_length_total,edge_length_avg,streets_per_node_avg,intersection_count,street_length_total,street_segment_count,street_length_avg,circuity_avg,3_way_int_count,4_way_int_count,dist_to_greenspace,dist_to_bikePOI,bike_points,bus_stops,restaurants,shop_list,cycle_length,ndvi_mean,ndvi_std,dem_mean,dem_std,lst_mean,lst_std,lc_entropy,pop_sum
Netherlands,Amsterdam,32631,Plesmanlaan,2022,38,52.3513756,4.8340979,128756,43,80,3.720930233,7082.412,88.53015,3.069767442,39,5277.194,51,103.4743922,1.025774095,24,13,48,38,1,2,0,0,1397.713746,0.442251961,0.190051434,1.543378995,1.493269374,290.9440996,0.821412482,0.829520298,778.7438354
Netherlands,Amsterdam,32631,Erasmusgracht,2022,38,52.3756332,4.8396611,102080,14,22,3.142857143,2423.49,110.1586364,2.857142857,13,1955,17,115,1.074321796,10,0,0,92,1,0,0,0,1379.214971,0.31747623,0.172268363,1.963636364,2.013261816,292.5441584,0.836082734,0.760094385,662.9147339
Netherlands,Amsterdam,32631,Nieuwe Hemweg,2022,38,52.4041176,4.8427629,25152,18,28,3.111111111,3470.019,123.92925,3.277777778,18,2573.885,24,107.2452083,1.063256485,14,3,90,0,2,0,0,0,940.9623735,0.340138027,0.201126884,3.389908257,4.263057544,293.7187321,1.423149443,0.807144851,730.6116943
Netherlands,Amsterdam,32631,Netwerkweg,2022,38,52.4126053,4.880053,40640,54,121,4.481481481,12437.059,102.7856116,3.222222222,53,7967.453,74,107.6682838,1.050587466,39,14,84,67,0,3,1,0,1112.546007,0.400874669,0.225343507,-1.476635514,2.439341854,293.3658732,1.584695165,0.770912259,394.8638
Netherlands,Amsterdam,32631,De Ruyterkade,2022,38,52.3820763,4.8959308,387572,48,78,3.25,7089.894,90.89607692,3.333333333,47,6375.119,67,95.15102985,1.040636376,27,17,73,69,0,0,1,0,1296.676876,-0.009048852,0.208916707,3.059360731,4.026299564,290.5316067,2.561857039,0.678593449,247.8396606
Netherlands,Amsterdam,32631,Geldersekade,2022,38,52.3761024,4.902494,521328,54,88,3.259259259,7820.031,88.86398864,3.111111111,52,6668.511,72,92.61820833,1.038219957,33,13,0,76,5,2,93,4,1378.593929,0.067068871,0.069783304,5.255707763,2.7956917,291.6572132,1.159242321,0.711954669,612.7792969
Netherlands,Amsterdam,32631,Weesperstraat,2022,38,52.3645134,4.9061499,164388,54,92,3.407407407,7877.263,85.62242391,3,47,6828.024,70,97.5432,1.044037532,23,19,0,73,1,0,7,1,1141.381386,0.183132875,0.112661201,6.075117371,2.805760441,291.5166153,0.624085512,0.628650417,773.3530273
Netherlands,Amsterdam,32631,Jachthavenweg,2022,38,52.3331337,4.8550491,198340,38,78,4.105263158,7317.973,93.82016667,3.263157895,32,4658.034,53,87.88743396,1.030680104,15,14,61,52,0,1,0,0,1433.255741,0.286242645,0.161469108,0.198156682,1.278102104,291.1511737,0.872621752,0.768586159,671.4404297
Netherlands,Amsterdam,32631,Skusjespad,2022,38,52.3369217,4.855587,48064,45,83,3.688888889,10227.536,123.2233253,3.555555556,45,8697.014,70,124.2430571,1.103439123,27,14,82,82,0,3,0,0,1660.917184,0.256490922,0.158297848,2.660550459,2.615129528,291.293793,0.801688805,0.731255801,738.5211792
Netherlands,Amsterdam,32631,Strawinskylaan,2022,38,52.3410149,4.8713231,217984,49,100,4.081632653,8602.628,86.02628,3.020408163,46,6277.636,66,95.11569697,1.025612676,34,8,83,98,9,5,6,1,1305.53455,0.265324275,0.180474073,5.046948357,3.985614105,290.4787999,1.26189738,0.751606162,854.65625
Netherlands,Amsterdam,32631,De Boelelaan,2022,38,52.3349609,4.8832431,81328,22,41,3.727272727,4587.329,111.8860732,3.090909091,19,3198.775,29,110.3025862,1.082540585,9,9,0,87,1,1,1,0,1367.8267,0.27959782,0.163238626,1.834101382,3.594688638,291.9894513,1.175572313,0.584850644,717.3097534
Netherlands,Amsterdam,32631,Linnaeusstraat,2022,38,52.3622704,4.9239888,232064,56,110,3.928571429,10781.906,98.01732727,3.410714286,56,7168.443,83,86.36678313,1.041130644,34,21,76,76,2,3,13,9,1916.741424,0.362387761,0.19771042,5.164383562,2.018275171,290.7739369,0.937311284,0.685986845,763.3841553
Netherlands,Amsterdam,32631,Weesperzijde,2022,38,52.3545341,4.908556,269552,58,98,3.379310345,8986.67,91.70071429,3.172413793,56,6818.365,72,94.69951389,1.040372735,38,16,80,91,2,2,16,1,1918.028559,0.196745609,0.141964497,4.465753425,2.173410458,291.2914705,1.003176689,0.872036632,657.9003906
Netherlands,Amsterdam,32631,Pontanusstraat,2022,38,52.3628998,4.9305749,96676,60,132,4.4,14623.212,110.7819091,3.266666667,58,9272.271,80,115.9033875,1.033148754,30,24,57,59,3,3,15,13,1929.210454,0.279548299,0.145984684,5.208144796,1.498755652,292.6234092,0.503879767,0.582002876,859.9473877
Netherlands,Amsterdam,32631,Fietspad Science Park,2022,38,52.3577042,4.9541869,201116,25,50,4,4210.813,84.21626,2.56,18,2167.935,27,80.29388889,1.056343396,15,3,76,76,18,2,1,0,809.3179432,0.411006509,0.226305906,-0.413636364,2.529246286,289.7192472,1.046478814,0.94056151,360.6364746
Netherlands,Rotterdam,32631,Tjalklaan (noordoostzijde) van Schiedam naar Overschie thv A20 (2 Ri.),2022,38,51.92342,4.4194698,25496,31,48,3.096774194,9565.153,199.2740208,3.290322581,30,8277.208,40,206.9302,1.052643386,17,12,114,114,0,0,0,0,2190.548792,0.289798563,0.235783679,0.71559633,2.385321101,293.8868621,1.587432039,0.688335433,482.9740906
Netherlands,Rotterdam,32631,Beukelsweg,2022,38,51.9214096,4.4391661,73728,24,35,2.916666667,4649.891,132.8540286,3.041666667,22,4179.353,31,134.8178387,1.093148392,17,5,138,0,0,2,0,0,2104.689126,0.41805173,0.225295502,0.835616438,2.13481918,292.1308148,0.969951443,0.874231449,334.5570679
Netherlands,Rotterdam,32631,Professor Jonkerweg van Rotterdam naar Overschie tzv A20 (2 Ri.),2022,38,51.9275093,4.4309001,72566,4,3,1.5,2221.281,740.427,2.5,3,2221.281,3,740.427,1.037548664,3,0,23,0,0,0,0,0,921.5138715,0.330835597,0.258234682,1.350230415,2.689270787,291.9549971,1.41489758,0.859520727,339.1402588
Netherlands,Rotterdam,32631,West-Sidelinge (oostzijde) van Overschie naar Rotterdam tnv A20 (2 Ri.),2022,38,51.931881,4.43717,22752,59,94,3.186440678,16334.79,173.7743617,2.949152542,54,13737.248,72,190.7951111,1.089019414,45,8,199,0,0,3,0,0,2013.874639,0.336046287,0.188943223,1.502283105,2.925832714,292.182363,0.767438665,0.754039547,481.2442017
Netherlands,Rotterdam,32631,Heemraadssingel,2022,38,51.9225426,4.4549322,163608,43,70,3.255813953,6090.76,87.01085714,3.209302326,43,4492.241,58,77.45243103,1.061221421,34,9,54,0,0,4,1,0,1779.180108,0.358989222,0.191585409,0.712328767,1.667410855,292.2728311,0.820543532,0.862927523,546.0042725
Netherlands,Rotterdam,32631,Gordelpad fietspad nabij viaduct A20 van Rotterdam Centrum naar Overschie (2 Ri.),2022,38,51.9370117,4.4612298,85474,77,112,2.909090909,11841.118,105.7242679,2.961038961,73,10988.68,96,114.4654167,1.008145206,60,9,193,19,0,1,0,0,1984.495073,0.3750728,0.188034899,1.564814815,2.058285641,292.5713795,1.021341574,0.868514795,548.3699341
Netherlands,Rotterdam,32631,GK van Hogendorpweg (westzijde) van Rotterdam naar Berkel en Rodenrijs tnv A20 (2 Ri.),2022,38,51.9387589,4.4602079,75006,37,46,2.486486486,6619.583,143.9039783,3.027027027,35,6085.021,41,148.4151463,1.00652011,30,5,11,195,0,0,0,0,1660.701536,0.501533944,0.196091398,1.422727273,3.101089518,291.6407315,1.02177863,0.955169395,447.2483521
Netherlands,Rotterdam,32631,GK van Hogendorpweg (oostzijde) van Berkel en Rodenrijs naar Rotterdam tnv A20 (2 Ri.),2022,38,51.9416084,4.4609699,29430,24,37,3.083333333,6541.424,176.7952432,2.875,20,5026.151,32,157.0672188,1.048722646,15,5,0,0,1,0,0,0,1941.42041,0.483458568,0.222514452,4.866359447,4.937920803,291.2850662,1.086600823,0.944555591,435.4443054
Netherlands,Rotterdam,32631,Soetendaalsebocht (oostzijde) van Rotterdam Noord naar Rotterdam Centrum tzv A20 (2 Ri.),2022,38,51.9414787,4.48592,78270,44,75,3.409090909,8253.396,110.04528,3.295454545,43,6484.305,60,108.07175,1.113674372,26,12,86,55,0,0,0,0,1591.019853,0.441064752,0.202200355,1.356164384,1.704438442,291.7929866,0.970597944,0.822223419,541.1981201
Netherlands,Rotterdam,32631,Veilingbrug (oostzijde) van Rotterdam Centrum naar Rotterdam Noord tzv A20 (1 Ri.),2022,38,51.9419403,4.4890299,17084,27,47,3.481481481,6282.227,133.6644043,3.37037037,26,4454.836,38,117.2325263,1.15848844,14,8,32,103,0,0,0,0,1586.920166,0.487411274,0.215193256,0.645454545,2.416181675,291.3273082,1.164306597,0.894046,497.4797363
Netherlands,Rotterdam,32631,Veilingbrug (westzijde) van Rotterdam Noord naar Rotterdam Centrum tzv A20 (1 Ri.),2022,38,51.9419708,4.4889302,12796,28,48,3.428571429,6644.378,138.4245417,3.357142857,27,4816.987,39,123.5124872,1.157439799,15,8,32,103,0,0,0,0,1593.246984,0.487974951,0.214496579,0.581818182,2.388920708,291.3023438,1.111740242,0.892728213,497.4797363
Netherlands,Rotterdam,32631,Pleinweg,2022,38,51.8899117,4.4874101,83148,77,148,3.844155844,13383.018,90.4257973,3.233766234,76,10466.959,106,98.74489623,1.045482108,54,21,150,0,0,5,8,5,1407.429699,0.285397597,0.16879437,2.701834862,1.483269489,293.3157074,0.434345067,0.775331258,528.4650269
Netherlands,Rotterdam,32631,Varkenoordseviaduct (noordoostzijde) van Rotterdam Vreewijk naar Kop van Zuid thv spoor (1 Ri.),2022,38,51.8973007,4.5184202,40670,34,77,4.529411765,9319.352,121.0305455,3.294117647,33,6581.982,47,140.0421702,1.048746449,21,12,0,0,0,0,1,0,2289.779102,0.161914872,0.102177115,2.669767442,2.803281705,293.504633,1.230124024,0.745533268,400.8898315
Netherlands,Rotterdam,32631,Varkenoordseviaduct (zuidwestzijde) van de Kop van Zuid naar Rotterdam IJsselmonde thv spoor (1 Ri.),2022,38,51.8968811,4.51827,55324,31,68,4.387096774,8577.773,126.1437206,3.290322581,30,6169.599,42,146.8952143,1.045826471,19,11,0,0,0,0,1,0,2266.402982,0.183727648,0.125815917,2.424657534,2.844129458,293.6228239,0.955613074,0.702755242,456.0723572
Netherlands,Rotterdam,32631,Breeweg (zuidzijde) tussen Rotterdam Vreewijk en Rotterdam IJsselmonde (thv spoor),2022,38,51.8910789,4.51933,20080,37,67,3.621621622,7097.042,105.926,3.054054054,36,5184.966,45,115.2214667,1.050858745,30,5,0,0,0,1,0,0,2235.8092,0.376021919,0.213306507,0.68202765,1.689026535,292.6928463,0.682884525,0.797994006,433.4033813
Netherlands,Rotterdam,32631,Breeweg (noordzijde) tussen Rotterdam Vreewijk en Rotterdam IJsselmonde (thv spoor),2022,38,51.8912086,4.5192299,16512,39,71,3.641025641,7523.32,105.9622535,3.076923077,38,5546.206,48,115.5459583,1.047466175,31,6,0,129,0,1,0,0,2183.638484,0.371126697,0.213199004,0.753424658,1.658911085,292.7344107,0.723834024,0.796151197,471.1289673
Netherlands,Rotterdam,32631,Lombardijepad tzv A15 van Rotterdam naar Barendrecht (2 Ri.) ,2022,38,51.86866,4.5020299,44584,4,5,2.5,1536.041,307.2082,2.25,3,994.411,3,331.4703333,1.042383309,2,0,193,0,1,0,0,0,2256.557496,0.613451974,0.212790583,-0.270642202,1.509954903,288.5127043,0.738001,0.876161601,188.5357056
Netherlands,Rotterdam,32631,Spinozaweg (noordwestzijde) van Rotterdam IJsselmonde naar Rotterdam Lombardijen thv spoor (2 Ri.),2022,38,51.8798409,4.5297599,16570,51,99,3.882352941,8157.323,82.39720202,2.450980392,36,5136.035,53,96.90632075,1.066617168,34,2,56,96,4,4,0,0,1240.01136,0.372102356,0.207458047,-0.204545455,1.250082642,291.667223,0.413098892,0.899039166,429.657074
Netherlands,Rotterdam,32631,Spinozaweg (zuidoostzijde) van Rotterdam Lombardijen naar Rotterdam IJsselmonde thv spoor (2 Ri.),2022,38,51.8793297,4.5299602,30924,48,93,3.875,7866.763,84.58884946,2.541666667,36,4990.755,50,99.8151,1.076122099,34,2,54,199,4,2,0,0,1293.578938,0.367354639,0.198377062,-0.427230047,1.36027142,291.6516652,0.395561729,0.883561065,459.3146667
Netherlands,Rotterdam,32631,Ijsselmondse Randweg (S104) (noordoostzijde) van Barendrecht naar Rotterdam thv A15 (2 Ri.),2022,38,51.870491,4.5503402,52600,39,73,3.743589744,10616.809,145.4357397,3.230769231,36,7883.194,54,145.9850741,1.134866695,22,13,0,0,2,2,1,0,1280.761884,0.362897712,0.221474847,-1.470319635,1.909549515,292.6079481,1.172341688,0.643923771,371.7485352
Netherlands,Rotterdam,32631,Van Brienenoordbrug van Rotterdam Centrum naar Rotterdam Zuid (2 Ri.),2022,38,51.8991089,4.5488901,91974,62,111,3.580645161,13575.907,122.3054685,2.919354839,54,10786.486,79,136.5377975,1.088253217,41,12,109,55,0,3,1,0,2776.045666,0.460010836,0.217253958,4.328767123,3.271803412,291.737764,0.48534765,0.76664409,381.6585999
Netherlands,Rotterdam,32631,Toepad (noordwestzijde) van Rotterdam naar Capelle aan den IJssel thv A16 (2 Ri.),2022,38,51.9092407,4.5397401,65822,11,24,4.363636364,3459.526,144.1469167,2.818181818,10,1761.064,13,135.4664615,1.092877647,10,0,44,0,1,0,0,0,2028.674376,0.395167238,0.253890422,3.834862385,2.497755916,292.4751469,1.217160659,0.774205471,444.5823059
Netherlands,Rotterdam,32631,Bergweg Zuid van Bergschenhoek naar Rotterdam tzv N209 (2 Ri.),2022,38,51.9787292,4.497602,58272,40,66,3.3,10006.96,151.6206061,2.85,38,6495.579,51,127.3642941,1.072930169,36,0,127,0,0,3,0,0,891.1632214,0.427535419,0.246355374,-4.231481481,1.7272676,292.8204572,2.192127297,0.793609888,263.1068726
Netherlands,Rotterdam,32631,Rottebandreef van Prins Alexander naar Prins Bleiswijk thv P Inktzwam (2r),2022,38,51.9709206,4.5387259,6816,8,16,4,8192.712,512.0445,2.25,5,4096.356,8,512.0445,1.085655084,5,0,127,127,0,0,0,0,643.4382908,0.592352835,0.190126391,-5.191588785,2.40826542,289.8508689,0.452989594,0.746791811,90.89548492
Netherlands,Rotterdam,32631,Rottekade van Bleiswijk naar Prins Alexander thv hnr. 36 (2r),2022,38,51.9717674,4.5437031,25656,7,14,4,1028.882,73.49157143,2.428571429,5,514.441,7,73.49157143,1.399165158,5,0,30,0,0,0,1,0,1168.399667,0.588654843,0.185946858,-5.01826484,2.400463179,289.8535245,0.454899777,0.760339097,140.966217
Netherlands,Rotterdam,32631,Rottebandreef van Prins Alexander naar Prins Bleiswijk thv P Vliegenzwamplaats (2r),2022,38,51.9813995,4.5489268,5516,8,16,4,6575.8,410.9875,2.25,5,3287.9,8,410.9875,1.131656197,5,0,30,0,0,0,0,0,597.6991531,0.562097318,0.236467226,-4.255707763,2.359939986,289.4381956,0.614948224,0.715592602,57.57437515
Netherlands,Rotterdam,32631,Rottekade van Bleiswijk naar Prins Alexander thv hnr. 5 (2r),2022,38,51.9828682,4.547987,21372,6,12,4,3584.382,298.6985,2.333333333,4,1792.191,6,298.6985,1.128698689,4,0,113,113,0,0,0,0,602.3401985,0.572699445,0.251508583,-4.622119816,2.175495944,289.5355703,0.716630654,0.652258788,59.78976059
Netherlands,Rotterdam,32631,"Groene Kruisweg tussen Oldegaarde en Kromme Zandweg, Rotterdam",2022,8,51.88137,4.46994,13980,20,33,3.3,3127.084,94.76012121,2.95,16,2506.288,23,108.9690435,1.007686272,9,7,199,0,0,2,2,0,2100.515019,0.6464643,0.120357738,1.509259259,2.713120966,289.4424732,0.714458612,0.783936523,313.8499451
Netherlands,Rotterdam,32631,"Bergambachtstr. (Tunnel) tussen Gouderakstraat en Pascalweg, Rotterdam",2022,8,51.87161,4.5359,29868,36,73,4.055555556,7718.699,105.7356027,3.055555556,31,4440.31,47,94.47468085,1.058592612,20,10,127,0,0,2,0,0,881.3450757,0.301964834,0.199946165,-1.01826484,1.16243906,294.2267409,1.82747035,0.678683172,424.1102295
Netherlands,Rotterdam,32631,"Groeninx v Zoelenlaan tussen Gr v Zoelenviaduct en Akkeroord, Rotterdam IJsselmonde",2022,8,51.88455,4.56122,40338,38,79,4.157894737,8769.218,111.0027595,2.815789474,32,5130.052,46,111.5228696,1.154000279,27,5,122,103,0,3,1,0,1667.599422,0.473628342,0.207440492,-0.290909091,1.524618906,292.3312678,0.752982684,0.961294677,341.8476563
Netherlands,Rotterdam,32631,"Prins Alexanderlaan tussen Rietkerkweg en Kralingseweg, Rotterdam",2022,8,51.93387,4.56211,21077,32,60,3.75,6104.98,101.7496667,3.125,27,4262.324,43,99.12381395,1.065326671,14,12,0,106,0,2,1,0,1790.696237,0.442342195,0.177663782,-4.146118721,1.533974753,291.9846604,0.5502892,0.752371979,526.0317993
Netherlands,Rotterdam,32631,"Capelseweg tussen Roer en Barbizonlaan, Rotterdam",2022,8,51.95854,4.5614,26485,42,79,3.761904762,8293.845,104.9853797,3.047619048,38,6321.246,56,112.8793929,1.119682739,27,9,130,0,0,2,0,0,1134.235145,0.464223905,0.184005121,-5.470046083,1.487358868,291.3855847,0.771966639,0.780653453,512.0346069
Netherlands,Rotterdam,32631,"CS Provenierstunnel tussen Proveniersplein en Conradstraat, Rotterdam",2022,8,51.92551,4.468428,237932,33,49,2.96969697,4897.716,99.95338776,3.03030303,32,4165.6,41,101.6,1.06222723,27,4,106,0,5,9,7,4,943.3511588,0.198430808,0.203516256,3.02293578,2.812884282,288.8123387,4.027582936,0.609333383,497.3775635
Netherlands,Rotterdam,32631,"Schiekade tussen Heer Bokelweg en Teilingerst/Simonstr, Rotterdam",2022,8,51.92742,4.47487,248981,57,101,3.543859649,8224.471,81.43040594,3.070175439,55,6224.358,74,84.11294595,1.040983806,43,10,0,0,3,1,10,0,1320.463133,0.266634631,0.159873062,4.175115207,1.909647616,293.0433828,0.623098708,0.748590716,504.6579895
Netherlands,Rotterdam,32631,"Rozenlaan viaduct tussen Gordelweg en Lathyrusplein, Rotterdam",2022,8,51.940513,4.469817,130420,45,68,3.022222222,6523.455,95.93316176,2.844444444,41,4751.255,51,93.16186275,1.057714537,36,3,0,0,0,0,0,0,2186.040604,0.321111973,0.194755576,0.316513761,1.999037097,292.7574541,1.191115786,0.755351337,521.3494263
Netherlands,Rotterdam,32631,"Bergweg viaduct tussen Gordelweg en Ceintuurbaan, Rotterdam",2022,8,51.941486,4.479888,159168,56,99,3.535714286,10226.711,103.3001111,3.196428571,52,7137.055,73,97.76787671,1.042088112,27,22,202,47,3,3,1,1,1887.424609,0.317346216,0.188069937,1.728110599,1.949782601,293.7258425,1.111185725,0.766603121,540.7325439
Netherlands,Rotterdam,32631,"Oostplein tussen Slaak en Oostmolenwerf, Rotterdam",2022,8,51.923133,4.497549,202262,95,200,4.210526316,13336.406,66.68203,3.136842105,88,9309.219,131,71.06274046,1.042405712,59,28,109,0,0,2,28,2,2626.105856,0.261072883,0.173982446,6.232876712,3.051403815,292.6505422,0.853262974,0.649244185,501.3764038
Netherlands,Rotterdam,32631,"Willemsbrug tussen Boompjes en Prins Hendrickkade, Rotterdam",2022,8,51.917979,4.49315,150674,49,80,3.265306122,9265.932,115.82415,3.102040816,44,7412.06,65,114.0316923,1.04609868,28,14,0,122,0,2,15,0,2631.401397,-0.010341202,0.280390881,2.605504587,2.568397739,290.3892274,1.978846163,0.813216828,169.4965363
Netherlands,Rotterdam,32631,"Rochussenstraat tussen Westersingel en Jongkindstraat, Rotterdam",2022,8,51.915807,4.472291,226300,47,78,3.319148936,6907.15,88.55320513,3.29787234,46,5951.116,64,92.9861875,1.010648887,24,19,109,0,1,3,36,2,1564.163995,0.302660201,0.17700461,2.359090909,2.551854778,292.6090554,0.487375904,0.829714385,437.2360535
USA,New York,32618,Prospect Park West,2022,33,40.671288,-73.971382,22175,38,56,2.947368421,6826.76,121.9064286,3.342105263,37,5502.527,52,105.8178269,1.015195837,23,13,0,165,2,1,0,0,1621.521613,0.324715679,0.208067009,49.25909091,3.99103075,287.2261719,0.454843558,0.779275981,1633.463867
USA,New York,32618,Manhattan Bridge Ped Path,2022,33,40.714573,-73.99495,1670,74,145,3.918918919,17039.322,117.5125655,3.5,70,14484.645,112,129.3271875,1.008223732,24,42,12,4,17,7,46,9,1298.245029,0.076562329,0.105427897,20.31506849,4.567734905,289.0375285,0.519605793,0.706077337,4562.383301
USA,New York,32618,Williamsburg Bridge Bike Path,2022,33,40.71053,-73.96145,55711,61,107,3.508196721,11509.728,107.5675514,3.62295082,61,10389.628,91,114.1717363,1.029511217,21,39,4,4,10,9,24,4,871.4606787,0.107337263,0.103187021,17.01408451,3.608127072,289.3626394,0.639186618,0.601148444,3614.609375
USA,New York,32618,Ed Koch Queensboro Bridge Shared Path,2022,33,40.75101,-73.94045,48433,67,116,3.462686567,18894.287,162.8817845,3.388059701,63,17428.297,99,176.043404,1.010609854,33,28,115,200,13,8,13,3,565.4489066,0.096960289,0.083076474,9.757990868,2.794460858,289.2678546,0.698486425,0.861262188,592.9217529
USA,New York,32618,Staten Island Ferry,2022,33,40.643387,-74.072075,3975,4,5,2.5,806.359,161.2718,3.5,4,806.359,5,161.2718,1.307947231,2,2,0,0,3,0,1,1,600.0204494,-0.080787873,0.156814799,1.646226415,2.766432023,287.5984486,2.212434301,0.830048337,70.78640747
USA,New York,32618,Pulaski Bridge,2022,33,40.742563,-73.951492,22610,83,168,4.048192771,17936.508,106.7649286,3.192771084,75,14344.707,122,117.5795656,1.013997095,46,26,165,0,19,8,21,3,1086.872155,0.089048564,0.096790415,7.232876712,3.213217059,290.5722745,0.676138509,0.861262188,889.2254639
USA,New York,32618,Kent Ave btw North 8th St and North 9th St,2022,33,40.720959,-73.96093,31663,31,51,3.290322581,6031.769,118.2699804,3.419354839,27,5021.738,44,114.1304091,1.024070025,6,21,161,11,15,2,16,3,0,0.126499616,0.139131619,6.435779817,4.828053019,289.3978283,1.105347848,0.656110121,807.2029419
USA,New York,32618,Manhattan Bridge Display Bike Counter,2022,33,40.7156,-73.99475,44646,70,136,3.885714286,16274.939,119.6686691,3.528571429,66,14075.781,107,131.5493551,1.008464878,20,42,179,13,13,8,55,7,1116.276892,0.093130969,0.122744158,20.44700461,4.19547735,289.0909778,0.436616852,0.771238868,4120.777344
USA,New York,32618,8th Ave at 50th St.,2022,33,40.762348,-73.98612,34214,32,49,3.0625,6852.898,139.8550612,3.96875,32,6852.898,49,139.8550612,1.000018182,1,31,157,230,15,3,50,4,0,0.084502549,0.076611117,33.32075472,8.574916436,287.2749484,0.473258861,0.604710574,4736.316895
USA,New York,32618,Amsterdam Ave at 86th St.,2022,33,40.7877,-73.97505,14440,40,76,3.8,9054.207,119.1343026,3.925,40,7487.601,64,116.9937656,1.000010431,3,37,170,4,12,10,27,3,0,0.124904127,0.113970395,41.51152074,7.148272067,288.3500864,0.574789455,0.644260397,7231.395508
USA,New York,32618,Columbus Ave at 86th St.,2022,33,40.7877,-73.97505,12279,40,76,3.8,9054.207,119.1343026,3.925,40,7487.601,64,116.9937656,1.000010431,3,37,170,4,12,10,27,3,0,0.124904127,0.113970395,41.51152074,7.148272067,288.3500864,0.574789455,0.644260397,7231.395508
USA,New York,32618,Manhattan Bridge Bike Comprehensive,2022,33,40.7156,-73.99475,44646,70,136,3.885714286,16274.939,119.6686691,3.528571429,66,14075.781,107,131.5493551,1.008464878,20,42,179,13,13,8,55,7,1116.276892,0.093130969,0.122744158,20.44700461,4.19547735,289.0909778,0.436616852,0.771238868,4120.777344
USA,New York,32618,Brooklyn Bridge Bicycle Path (Roadway),2022,33,40.712656,-74.004464,31888,53,81,3.056603774,10815.027,133.5188519,3.396226415,51,9996.433,71,140.794831,1.057003192,30,17,0,8,42,9,4,2,870.6276809,0.188836527,0.180204528,25.58715596,18.65535366,288.6695097,0.688423987,0.843970455,1312.822021
USA,New York,32618,111th St at 50th Ave,2022,33,40.74563,-73.8525,2093,26,54,4.153846154,4969.869,92.03461111,3.692307692,26,4229.772,40,105.7443,1.014892743,9,16,237,155,0,0,0,0,0,0.244442377,0.199511207,11.07834101,3.915977082,288.1862399,0.762048805,0.815713307,1330.947754
USA,Seattle,32610,Fremont Bridge,2022,38,47.648143,-122.349804,21560,33,76,4.606060606,6714.128,88.34378947,3.363636364,33,3854.137,44,87.59402273,1.020702106,23,9,125,0,29,4,16,1,1937.842526,0.169306898,0.173242206,9.771689498,5.811571073,292.2847817,1.345275448,0.875310685,34.59742355
USA,Seattle,32610,Spokane Street,2022,38,47.57127,-122.349699,6516,16,29,3.625,5821.647,200.7464483,3.25,15,3715.714,23,161.5527826,1.021954931,8,5,194,194,0,0,0,0,498.4940627,0.088286932,0.14527881,2.935779817,3.002369796,293.4378584,2.276519932,0.569379098,0
USA,Seattle,32610,2nd Avenue,2022,38,47.604745,-122.334772,6176,52,109,4.192307692,9519.073,87.33094495,3.846153846,52,7275.909,83,87.66155422,1.002498618,7,43,190,0,55,18,41,1,1382.996346,0.115582853,0.109733717,38.40639269,18.19288223,293.3005137,1.113136024,0.483020009,367.9107971
USA,Seattle,32610,Elliott Bay Trail in Myrtle Edwards Park,2022,38,47.618624,-122.359977,7828,22,52,4.727272727,5213.131,100.2525192,3.409090909,21,2970.818,30,99.02726667,1.002097821,10,11,0,120,2,3,3,0,794.675494,0.163645323,0.213854676,6.497716895,6.867549548,290.2696383,3.779209786,0.784555168,261.9756165
USA,Seattle,32610,Burke Gilman Trail north of NE 70th St,2022,38,47.679799,-122.265145,7932,16,38,4.75,8036.432,211.4850526,3.25,16,4018.216,19,211.4850526,1.059392639,12,4,219,214,1,4,0,1,705.7370422,0.439043442,0.214903777,35.90909091,15.12255718,294.7890625,0.585372656,0.718035052,519.2996826
USA,Seattle,32610,58th St Greenway at 22nd Ave,2021,38,47.670918,-122.384502,959,46,115,5,15166.163,131.8796783,3.586956522,45,7689.301,62,124.0209839,1.001679079,16,29,195,195,29,1,12,1,1077.24993,0.243044859,0.153736707,27,4.004692084,293.8685446,0.412991778,0.673810987,849.6720581
USA,Seattle,32610,Broadway Cycle Track North Of E Union St,2021,38,47.613183,-122.320807,2606,50,145,5.8,14060.199,96.96688966,3.46,49,7116.164,74,96.16437838,1.009441756,22,26,0,186,63,10,50,3,1908.660309,0.173398408,0.158187111,95.89545455,4.755186381,294.7682884,0.835702146,0.718665797,340.1219482
USA,Seattle,32610,Chief Sealth Trail North of Thistle,2021,38,47.528003,-122.281044,435,45,97,4.311111111,10743.048,110.7530722,2.933333333,37,6200.191,53,116.9847358,1.012126126,24,13,203,183,0,2,0,0,648.5208334,0.457819792,0.186889902,29.56621005,7.324753165,295.1761915,0.509673359,0.936542985,477.9991455
USA,Seattle,32610,MTS Trail west of I-90 Bridge,2021,38,47.590692,-122.288026,3253,33,74,4.484848485,8234.094,111.2715405,2.818181818,26,4117.047,37,111.2715405,1.018867763,18,8,182,162,0,5,0,0,1119.782593,0.457916182,0.244417634,32.95774648,22.32418211,292.0674699,1.703061481,0.719794909,169.8778076
USA,Seattle,32610,Thomas St Overpass,2022,38,47.62058,-122.361289,933,28,75,5.357142857,7857.497,104.7666267,3.535714286,27,4270.906,41,104.168439,1.001122264,10,17,125,0,6,3,2,0,925.7232089,0.174541337,0.183471611,9.150684932,8.055182794,292.298516,2.976840896,0.709870879,202.037262
USA,Seattle,32610,2nd Ave Cycle Track North of Marion St,2022,38,47.604607,-122.33463,6176,54,112,4.148148148,9809.757,87.58711607,3.777777778,53,7441.879,85,87.55151765,1.00244345,8,43,190,0,55,16,41,2,1224.693638,0.115320344,0.10932127,37.49315068,17.38927656,293.3840967,1.104498862,0.514948764,367.9107971
USA,Seattle,32610,7th Ave South of Blanchard St,2021,38,47.616498,-122.339874,371,59,127,4.305084746,11035.87,86.89661417,3.762711864,58,8200.134,94,87.23546809,1.003832526,12,45,194,0,84,3,36,4,1871.609649,0.183690018,0.158468153,33.83944954,6.029507235,291.3120879,0.633144052,0.672293615,409.6093445
USA,Seattle,32610,26th Ave SW Greenway at SW Oregon St,2021,38,47.56287,-122.36552,843,21,47,4.476190476,7541.739,160.4625319,2.952380952,19,3787.632,25,151.50528,1.030178995,16,3,259,259,0,3,0,0,673.1410183,0.567904301,0.222667358,25.68636364,7.190700779,292.732848,1.893244582,0.962281242,76.76025391
USA,Seattle,32610,Westlake PBL and Newton St,2021,38,47.636381,-122.340067,12188,17,38,4.470588235,4013.18,105.61,2.588235294,12,2006.59,19,105.61,1.028721561,9,3,0,211,0,6,3,1,799.2746617,0.148635958,0.231252818,13.7370892,14.25970998,291.65625,2.722283613,0.784326369,338.3306274
Netherlands,Utrecht,32631,Vredenburg (noordkant) van Utrecht Centrum naar Utrecht Centraal Station (1 Ri),2022,38,52.0930862,5.1132951,249060,48,91,3.791666667,6565.574,72.14916484,2.875,41,4571.256,60,76.1876,1.060804536,23,13,33,85,6,6,53,2,2555.03819,0.151418568,0.10126422,10.78538813,3.616876501,292.3201341,0.784254651,0.567550426,760.0341187
Netherlands,Utrecht,32631,Van Sijpesteijnkade van Utrecht Centrum naar Lombok (2 Ri.),2022,38,52.0913353,5.1075339,235252,52,84,3.230769231,5626.721,66.98477381,3.115384615,49,5018.019,73,68.7399863,1.092571486,27,17,0,0,7,12,16,4,2648.225251,0.1147026,0.108491656,6.456621005,4.710979064,291.0827269,0.735284733,0.501833017,754.6101074
Netherlands,Utrecht,32631,Lucasbrug zuidzijde van Utrecht centrum naar Wittevrouwen (1 Ri.),2022,38,52.0928574,5.126617,209582,72,122,3.388888889,9039.059,74.09064754,2.916666667,65,6744.718,89,75.78334831,1.021708045,47,13,36,25,6,4,27,1,1048.756412,0.190274436,0.115809698,7.186915888,2.064976482,292.7780739,0.583644338,0.734827521,718.447998
Netherlands,Utrecht,32631,Maliesingel van Sterrenwijk naar Utrecht Centrum (2 Ri.),2022,38,52.0870132,5.1292448,220128,34,53,3.117647059,4026.801,75.97737736,2.823529412,30,3308.545,42,78.77488095,1.005359372,26,3,0,0,2,0,2,0,229.2303492,0.353162825,0.187399734,6.493150685,2.250052994,292.4547303,1.561949205,0.803189912,723.5709839
Netherlands,Utrecht,32631,Daalsetunnel noordbuis van Utrecht Centrum naar Lombok (2 Ri.),2022,38,52.0942421,5.1070981,268038,66,116,3.515151515,7318.865,63.09366379,3.121212121,61,5634.046,88,64.02325,1.049497789,38,19,0,0,4,2,3,3,2620.644613,0.197950554,0.12435387,4.075117371,1.894888258,291.2882923,0.451499216,0.613669715,773.3294678
Netherlands,Utrecht,32631,Amsterdamsestraatweg (oostkant) van Zuilen naar Utrecht Centrum (2 Ri.),2022,38,52.0957832,5.1089039,230638,80,153,3.825,9841.655,64.32454248,3.1125,75,7231.288,109,66.34209174,1.084184231,46,24,0,65,2,2,6,3,2159.563067,0.25102505,0.132870836,4.213636364,1.647255418,291.4189808,0.668252226,0.74800742,783.5127563
Netherlands,Utrecht,32631,Amsterdamsestraatweg (westkant) van Zuilen naar Utrecht Centrum (1 Ri.),2022,38,52.0956917,5.108479,267140,77,146,3.792207792,9718.566,66.56552055,3.103896104,72,7382.625,106,69.64740566,1.081065293,44,23,0,67,2,2,7,3,2250.555833,0.237765605,0.12758926,4.087962963,1.597638164,291.4185113,0.669754144,0.734141336,822.8339844
Netherlands,Utrecht,32631,Alexander Numankade van Rijnsweerd naar Utrecht Centrum (2 Ri.),2022,38,52.1005516,5.1338186,73618,66,139,4.212121212,10161.348,73.10322302,2.96969697,58,7014.541,86,81.56443023,1.066023386,44,14,0,0,2,0,2,0,417.8161358,0.346688065,0.173576215,5.254545455,1.887453136,291.1746094,0.927807494,0.711702764,758.7824707
Netherlands,Utrecht,32631,Vleutenseweg/Hogeweidebrug van Utrecht centrum naar Leidsche Rijn (2 Ri.),2022,38,52.0974388,5.08038,253700,27,54,4,7553.342,139.8767037,3.185185185,26,4995.485,37,135.0131081,1.050465834,16,7,22,61,1,0,0,0,704.7895859,0.178118563,0.199903429,5.060185185,2.378742269,291.1304073,1.486117868,0.72407026,450.9811707
Netherlands,Utrecht,32631,Dafne Schippersbrug van Utrecht centum naar Leidsche Rijn (2 Ri.),2022,38,52.0870781,5.0777812,147328,26,45,3.461538462,6672.889,148.2864222,3.038461538,22,5057.843,33,153.2679697,1.037545778,9,11,18,87,0,2,0,0,1723.383277,0.213381839,0.25439946,3.515981735,2.60197858,290.1843072,1.302755465,0.871799893,374.6270752
Netherlands,Utrecht,32631,De Meernbrug van Leidsche Rijn naar Utrecht Centrum (2 Ri.),2022,38,52.0793266,5.0828061,95598,12,22,3.666666667,2721.736,123.7152727,2.75,10,1547.135,12,128.9279167,1.09226429,9,1,95,93,12,0,0,0,999.4780029,0.221214049,0.307679736,3.680751174,2.562176195,290.573962,1.723814993,0.840846477,460.0167236
Netherlands,Utrecht,32631,Zeehaenkade van Utrecht Centrum naar Nieuwegein (2 Ri.),2022,38,52.0664139,5.111692,165678,41,70,3.414634146,7433.948,106.1992571,2.853658537,35,4665.577,49,95.21585714,1.040861069,27,7,82,48,1,4,1,0,1805.796122,0.264960343,0.145050308,4.270642202,1.57537255,291.4416571,1.020078702,0.737643384,824.0169678
Netherlands,Utrecht,32631,Koningsweg van Zeist naar Utrecht Centrum (1 Ri.),2022,38,52.0772591,5.1332512,35808,36,73,4.055555556,7174.363,98.27894521,2.777777778,30,4518.145,43,105.0731395,1.026923126,24,5,32,36,21,1,0,0,1873.487207,0.455555094,0.184030313,5.45412844,2.089775551,291.6548165,0.992519451,0.883510204,511.960907
Netherlands,Utrecht,32631,Koningsweg van Utrecht Centrum naar Zeist (1 Ri.),2022,38,52.0771332,5.1332908,92212,34,71,4.176470588,6778.123,95.46652113,2.764705882,28,4121.905,41,100.5342683,1.025745129,22,5,32,36,19,1,0,0,1741.288954,0.454913608,0.186997755,5.493087558,2.036803802,291.6759613,0.969265967,0.874271956,495.9694214
Netherlands,Utrecht,32631,Weg tot de Wetenschap van Galgenwaard naar Utrecht Science Park (2 Ri.),2022,38,52.0841026,5.1613512,152406,22,46,4.181818182,9078.612,197.3611304,2.636363636,17,4539.306,23,197.3611304,1.073104624,15,2,74,90,2,2,0,0,1391.629228,0.482285722,0.208960701,3.971830986,1.913420586,291.740537,0.449896876,0.954441529,364.1184082
Netherlands,Utrecht,32631,Archimedeslaan van Utrecht Centrum naar Utrecht Science Park (2 Ri.),2022,38,52.0863991,5.1617041,191148,30,70,4.666666667,8956.888,127.9555429,2.766666667,25,4565.372,36,126.8158889,1.194679107,22,3,0,0,3,2,0,0,1095.646977,0.439225277,0.188644786,4.470319635,2.100833796,292.3870398,0.755673965,0.842992972,437.2663269
Netherlands,Utrecht,32631,Biltstraat van De Bilt naar Utrecht Centrum (2 Ri.),2022,38,52.0961761,5.142921,129476,37,54,2.918918919,7467.158,138.2807037,3.108108108,37,6705.747,46,145.7771087,1.066016337,29,6,48,36,4,2,0,0,1083.38788,0.468596247,0.173565366,4.082191781,2.523425001,289.8975813,0.674956,0.739780618,504.9174805
Netherlands,Utrecht,32631,Biltse Rading van A27 naar Blauwkapelse weg (2 Ri.),2022,38,52.1044655,5.1575432,55534,11,13,2.363636364,3551.061,273.1585385,2.909090909,9,3551.061,13,273.1585385,1.005579914,6,3,85,83,0,0,0,0,655.4475627,0.569612539,0.065998987,-0.399061033,1.648843402,289.9668794,0.262049991,0.5139283,223.4318542
Netherlands,Utrecht,32631,Koningin Wilhelminaweg van Gageldijk naar Groenedijk (2 Ri.),2022,38,52.121254,5.1419258,54122,25,36,2.88,9600.342,266.6761667,2.8,22,7821.273,30,260.7091,1.174180688,21,1,48,17,0,2,0,0,1078.482602,0.426955493,0.191798484,1.359090909,1.732879656,291.3760653,1.019041148,0.893979245,197.9049225
Netherlands,Utrecht,32631,N237 van Kerklaan naar A27 (2 Ri.),2022,38,52.100647,5.1655712,161548,19,27,2.842105263,2319.306,85.90022222,2.736842105,16,1924.053,21,91.62157143,1.02159687,13,2,18,4,0,0,0,0,722.8212846,0.441747539,0.205363457,2.608294931,2.269518584,292.4915395,2.156236927,0.878393278,120.7228546
Netherlands,Utrecht,32631,Uppsalapad van Oude Bunninkseweg naar A28 (2 Ri.),2022,38,52.0966301,5.1785922,70920,7,12,3.428571429,3017.656,251.4713333,3.285714286,5,1777.641,8,222.205125,1.030082403,1,3,92,92,0,0,0,0,572.910935,0.579784282,0.101073826,1.684931507,1.207397809,292.1437464,0.499765979,0.746842776,78.56216431
USA,"Norfolk, Virginia",32618,1075 W Ocean View Avenue,2022,8,36.967176,-76.280858,31635,20,42,4.2,4562.607,108.6335,2.95,16,2974.15,25,118.966,1.006664278,9,7,0,84,0,0,0,0,996.8331756,0.225925381,0.244672318,1.060747664,1.702403853,292.3557791,1.408660453,0.842967029,364.3995361
USA,"Norfolk, Virginia",32618,1103 Llewellyn Avenue,2022,8,36.860398,-76.290665,137,68,153,4.5,12184.788,79.63913725,3,62,7435.969,86,86.46475581,1.033325573,52,9,45,45,0,0,0,0,0,0.425399266,0.170520485,5.660550459,1.512760303,292.822839,0.446985486,0.822017608,574.6947021
USA,"Norfolk, Virginia",32618,1134 Llewellyn Avenue,2022,8,36.860939,-76.290191,110,65,149,4.584615385,12269.366,82.34473826,3.046153846,60,7277.574,82,88.75090244,1.023083892,49,10,82,82,0,0,0,0,0,0.439053483,0.174744823,5.602739726,1.484221974,292.8161922,0.459558593,0.819167861,549.416687
USA,"Norfolk, Virginia",32618,1446 Church Street,2022,8,36.86063,-76.278098,54,53,114,4.301886792,9589.431,84.11781579,3.20754717,47,6195.194,75,82.60258667,1.045962137,25,21,0,0,0,0,0,0,1007.068153,0.466207565,0.170323373,4.897196262,1.945205366,292.5306476,0.736660279,0.75480614,490.2196655
USA,"Norfolk, Virginia",32618,2215 Lafayette Boulevard,2022,8,36.876847,-76.260527,65,40,112,5.6,13122.568,117.1657857,3.55,36,6561.284,56,117.1657857,1.000192964,7,28,82,45,0,0,0,0,499.3154466,0.482298499,0.175683736,6.093457944,1.234494185,292.6155264,0.318514766,0.792725167,623.1152344
USA,"Norfolk, Virginia",32618,2300 block E Ocean View Avenue,2022,8,36.935035,-76.212547,34,22,45,4.090909091,5062.017,112.4892667,2.590909091,15,2646.551,23,115.0674348,1.005177886,10,5,129,51,0,0,0,0,0,0.299772069,0.279271467,3.522727273,2.521621379,290.6681818,1.197219232,0.937533109,165.2451324
USA,"Norfolk, Virginia",32618,2300 block Llewellyn Avenue,2022,8,36.870235,-76.287756,2,34,98,5.764705882,11533.286,117.6865918,3.823529412,33,6080.262,51,119.2208235,1.0001451,4,28,44,44,0,0,1,0,500.2881342,0.137438529,0.126442845,5.050228311,1.459416736,293.8673659,0.49684209,0.590199184,109.499527
USA,"Norfolk, Virginia",32618,2502 Lafayette Boulevard,2022,8,36.876405,-76.257975,0,36,102,5.666666667,13360.686,130.9871176,3.527777778,32,6680.343,51,130.9871176,1.009919274,5,27,88,71,0,0,0,0,499.0280121,0.465774988,0.180714339,5.95412844,1.426391618,292.7545872,0.318589429,0.824974244,427.1711426
USA,"Norfolk, Virginia",32618,2509 E Ocean View Avenue,2022,8,36.934408,-76.210731,47,35,79,4.514285714,7443.913,94.22674684,2.6,23,3837.499,40,95.937475,1.01742907,13,10,0,140,0,0,0,0,0,0.314670953,0.258390156,3.390909091,2.138799385,290.7890625,1.072309893,0.927398704,92.51068115
USA,"Norfolk, Virginia",32618,300 block W Olney Road,2022,8,36.857689,-76.294156,175,66,163,4.939393939,13088.521,80.29767485,3.272727273,63,7919.89,94,84.25414894,1.018975946,43,18,76,83,0,0,0,1,1014.986286,0.399371257,0.178218698,6.509174312,1.944743151,292.8335543,0.412624296,0.74326231,382.0984192
USA,"Norfolk, Virginia",32618,600 block W Olney Road,2022,8,36.860107,-76.299086,119,49,115,4.693877551,10594.44,92.12556522,3.551020408,49,6693.56,72,92.96611111,1.021627864,23,25,0,0,0,0,1,0,1111.006182,0.315152187,0.186323253,7.145454545,2.417122119,292.3789773,0.693322028,0.693496616,450.4915161
USA,"Norfolk, Virginia",32618,605 W 35th Street,2022,8,36.877977,-76.290704,206,40,99,4.95,11046.134,111.5771111,3.85,40,7006.341,60,116.77235,1.000750739,8,30,65,65,0,0,0,0,680.0805464,0.406801464,0.178277641,5.812785388,1.985477182,293.439034,0.560201776,0.911848673,615.2895508
USA,"Norfolk, Virginia",32618,7th View Street,2022,8,36.963839,-76.268234,41,11,18,3.272727273,2080.066,115.5592222,2.636363636,8,1954.453,12,162.8710833,1.001918129,6,2,45,82,0,0,0,0,1004.919214,0.122450256,0.29276108,2.050228311,2.608772948,290.9421732,1.439994819,0.866060594,129.9203339
USA,"Norfolk, Virginia",32618,812 W 27th Street,2022,8,36.875436,-76.29584,37,52,137,5.269230769,14182.085,103.5188686,3.769230769,51,9043.483,83,108.9576265,1.007136431,11,38,78,78,0,0,0,0,956.9378422,0.356765086,0.199966688,5.560185185,1.749626405,293.0604203,0.59349882,0.702982444,552.1036987
USA,"Norfolk, Virginia",32618,830 W 26th Street,2022,8,36.874775,-76.296672,47,52,142,5.461538462,15812.449,111.3552746,3.730769231,50,9681.051,84,115.2506071,1.010483881,10,38,70,70,0,0,0,0,1046.53086,0.272357203,0.20067517,5.293577982,1.943244012,293.1357511,0.69024502,0.661483025,391.8173523
USA,"Norfolk, Virginia",32618,Larchmont Library (ERT),2022,8,36.90013282,-76.3043351,152,25,62,4.96,8421.925,135.8375,3.56,24,5013.95,38,131.9460526,1.189859612,9,14,142,142,1,0,1,0,486.9275835,0.304967814,0.312762193,4.364485981,2.189151346,290.4239011,1.413524399,0.835766351,162.7780457
USA,"Norfolk, Virginia",32618,Plum Point Park (ERT),2022,8,36.86139871,-76.30732988,578,28,35,2.5,8402.877,240.0822,3.107142857,26,7677.112,33,232.6397576,1.073709701,20,5,72,0,1,0,0,0,523.6955963,0.278601281,0.223139977,3.560747664,2.255533466,291.3594845,1.278796651,0.842624578,19.51025391
USA,Arlington County,32618,Key Bridge West,2022,38,38.900579,-77.070839,3922,28,40,2.857142857,7521.524,188.0381,3.142857143,26,6820.282,35,194.8652,1.075482276,18,8,68,27,0,2,0,0,351.0942763,0.202477691,0.397824904,11.61009174,9.39643154,290.0697929,1.631464539,0.832886232,20.63827515
USA,Arlington County,32618,Key Bridge East,2022,38,38.900487,-77.070624,7399,23,29,2.52173913,6102.093,210.417,3.217391304,22,5707.385,28,203.8351786,1.088237251,15,7,68,27,0,2,0,0,360.4443559,0.211739592,0.3974904,11.42922374,9.166061325,290.0699201,1.605931785,0.848917726,20.63827515
USA,Arlington County,32618,Rosslyn Bikeometer,2022,38,38.899086,-77.071185,6742,41,64,3.12195122,9024.163,141.0025469,3.195121951,39,7531.92,51,147.6847059,1.062734363,27,12,101,52,5,6,4,0,841.6814732,0.367973822,0.24922822,21.56621005,10.41464326,291.372592,0.953122455,0.803945157,89.77901459
USA,Arlington County,32618,TR Island Bridge,2022,38,38.898021,-77.067741,6038,18,24,2.666666667,4349.525,181.2302083,3,16,3852.87,20,192.6435,1.065888259,12,4,58,90,2,0,2,0,601.6150763,0.339012793,0.334189845,12.83486239,11.33882974,290.1113102,1.426528604,0.772231775,209.2883911
USA,Arlington County,32618,Roosevelt Bridge,2022,38,38.893842,-77.065724,2112,25,31,2.48,9172.623,295.8910645,2.96,24,8735.819,27,323.5488519,1.05335816,21,2,58,64,1,0,0,0,829.9415661,0.257645972,0.345557656,10.16055046,8.844575576,290.247133,1.792262874,0.854877712,172.1696014
USA,Arlington County,32618,110 Trail,2022,38,38.885282,-77.065092,3696,15,19,2.533333333,5140.382,270.5464211,2.733333333,13,4474.93,15,298.3286667,1.130963219,13,0,0,90,0,1,0,0,1068.925782,0.628952587,0.176306127,13.06912442,4.330772504,291.2370032,0.67268231,0.755787964,0
USA,Arlington County,32618,Custis Rosslyn,2022,38,38.897104,-77.083456,6621,49,97,3.959183673,13302.356,137.1376907,2.653061224,37,9453.011,57,165.8422982,1.040961133,30,7,58,34,1,7,1,0,1766.629835,0.430070701,0.17431044,57.18894009,5.557099273,292.2013969,0.58977734,0.851525577,533.130127
USA,Arlington County,32618,14th Street Bridge,2022,38,38.874291,-77.044605,10564,21,25,2.380952381,5842.345,233.6938,2.904761905,20,5842.345,25,233.6938,1.140574921,20,0,121,0,0,0,0,0,1332.33733,0.156390372,0.318046167,2.655963303,4.0677729,289.7649083,1.417997909,0.825408234,0
USA,Arlington County,32618,Joyce St SB,2022,38,38.867234,-77.062974,446,36,40,2.222222222,13340.466,333.51165,3,35,12365.499,37,334.2026757,1.074536074,33,2,120,116,0,3,0,0,1459.260371,0.30324216,0.200764773,21.36866359,5.511825123,293.9322797,0.972739855,0.788920822,444.2958679
USA,Arlington County,32618,Eads SB,2022,38,38.859381,-77.053438,432,39,76,3.897435897,11495.847,151.2611447,3.512820513,39,8991.949,55,163.4899818,1.022893194,20,18,0,0,4,6,0,1,1881.896422,0.218445915,0.146276592,22.57272727,6.036945481,293.0211648,0.418686902,0.596404529,3103.248291
USA,Arlington County,32618,Eads NB,2022,38,38.857777,-77.053127,472,45,94,4.177777778,12020.127,127.8736915,3.511111111,45,8661.192,64,135.331125,1.001683531,23,19,120,0,4,9,0,1,1463.983466,0.234457845,0.157601813,25.05963303,5.941698692,293.2413991,0.433329958,0.611826888,2069.298584
USA,Arlington County,32618,Crystal NB bike lane,2022,38,38.857138,-77.049265,983,19,35,3.684210526,5324.019,152.1148286,3.526315789,19,3708.196,23,161.225913,1.002115785,8,9,76,59,4,11,5,0,1374.880992,0.243174303,0.175846728,23.89041096,8.447898299,292.3021904,0.429856081,0.719901403,558.6328125
USA,Arlington County,32618,CC Connector,2022,38,38.857736,-77.047428,3989,12,12,2,3709.933,309.1610833,2.833333333,11,3709.933,12,309.1610833,1.082442027,11,0,118,120,1,1,2,0,1642.532433,0.318962222,0.191466127,16.64976959,8.121026498,292.2484159,0.654883817,0.825881872,208.8488922
USA,Arlington County,32618,MVT Airport South,2022,38,38.844317,-77.048911,11800,22,45,4.090909091,3806.424,84.5872,3.636363636,22,3188.038,34,93.76582353,1.012744069,10,10,52,69,2,0,0,0,567.601441,0.209142677,0.194084126,6.114678899,2.673462027,294.4271431,1.318128191,0.677594657,1.228530765
USA,Arlington County,32618,Arlington Mill Trail,2022,38,38.845693,-77.096207,1677,30,60,4,9804.124,163.4020667,3.166666667,28,6186.745,40,154.668625,1.146590538,17,7,58,90,2,9,0,1,1158.019211,0.398286766,0.192649379,22.18636364,3.106707619,293.9306818,0.786105129,0.703945315,256.8926697
USA,Arlington County,32618,W&OD Columbia Pike,2022,38,38.857163,-77.110846,6462,27,55,4.074074074,8831.066,160.5648364,2.851851852,20,5345.142,30,178.1714,1.016094687,12,6,64,79,3,6,0,3,1470.262522,0.409881965,0.207899865,46.76255708,7.631840585,293.3249501,1.214151067,0.774769498,1127.600952
USA,Arlington County,32618,W&OD Bon Air West,2022,38,38.879313,-77.139145,7043,34,72,4.235294118,7984.291,110.8929306,3.088235294,28,4654.672,41,113.5285854,1.010244887,14,13,52,52,0,0,0,0,2082.28418,0.53722092,0.153523383,80.63926941,4.613115254,291.2777183,0.631663033,0.609065859,263.5176392
USA,Arlington County,32618,Custis Bon Air Park,2022,38,38.879216,-77.138449,5522,36,76,4.222222222,8456.509,111.2698553,3.111111111,30,4890.781,43,113.739093,1.011098806,15,14,120,120,0,0,0,0,2086.223539,0.534756798,0.156756242,80.43636364,4.484371391,291.1537997,0.681134261,0.679852992,192.9709473
USA,Arlington County,32618,W&OD Bon Air Park,2022,38,38.878819,-77.138283,5599,27,57,4.222222222,6274.079,110.0715614,3.148148148,23,3475.752,32,108.61725,1.010843058,11,12,120,120,0,0,0,0,2005.613273,0.54681176,0.155855728,80.55299539,4.331664867,291.0389005,0.679453734,0.66940871,189.1652374
USA,Arlington County,32618,Ballston Connector,2022,38,38.88295,-77.121188,130,31,66,4.258064516,7134.701,108.1015303,2.903225806,26,4142.863,37,111.9692703,1.027338033,17,8,120,0,0,0,0,0,1056.626238,0.441665751,0.140322873,87.64516129,5.405952266,291.4868772,0.583175601,0.675432117,256.9962158
USA,Arlington County,32618,Fairfax,2022,38,38.883282,-77.103564,2107,40,104,5.2,9909.344,95.28215385,3.5,40,5574.891,58,96.11881034,1.007045261,20,20,10,84,3,7,4,3,197.6401243,0.239665907,0.166777856,86.20737327,5.900741265,292.7686132,0.579358437,0.701873926,1360.445801
USA,Arlington County,32618,Quincy bike lane,2022,38,38.885537,-77.108124,1370,24,58,4.833333333,7978.733,137.5643621,3.416666667,24,4073.7,30,135.79,1.001197153,12,11,76,44,3,10,0,0,467.6833899,0.407400909,0.184702779,84.53424658,3.364122519,293.1945634,0.917259792,0.858368077,872.2632446
USA,Arlington County,32618,Wilson WB bike lane,2022,38,38.889818,-77.090215,1524,53,123,4.641509434,12154.709,98.81877236,3.433962264,52,7024.916,78,90.06302564,1.03205559,29,21,0,126,5,7,8,1,165.8376226,0.303528548,0.182680355,76.66359447,3.075428408,293.1432532,0.526013853,0.702199183,923.8909912
USA,Arlington County,32618,Clarendon EB bike lane,2022,38,38.888933,-77.090172,837,47,102,4.340425532,9740.942,95.49943137,3.425531915,47,5773.717,67,86.1748806,1.032394225,28,18,120,126,5,8,8,1,259.7326744,0.277963262,0.17955661,76.66666667,3.625246201,293.2081133,0.525982951,0.686848924,1206.279053
USA,Arlington County,32618,Military bike lane,2022,38,38.906708,-77.110211,524,21,42,4,6010.364,143.1039048,2.761904762,16,3136.484,23,136.3688696,1.087694488,11,5,64,0,0,6,0,0,638.4113058,0.577000058,0.138077596,84.94520548,5.275662423,291.1213256,0.375682411,0.610625819,190.0693054
USA,Austin,32614,S 1st Total PC,2022,38,30.261995,-97.748399,575,14,26,3.714285714,2932.414,112.7851538,3.285714286,14,1985.617,18,110.3120556,1.014689111,8,5,0,138,0,0,1,0,3055.854317,0.18975827,0.260602345,139.8842593,6.915530858,296.1374783,1.66058156,0.831441634,0
USA,Austin,32614,Butler Trail: North Congress,2022,38,30.262409,-97.744317,4206,19,46,4.842105263,5426.511,117.9676304,3.421052632,18,2984.508,26,114.7887692,1.003653557,6,11,0,0,4,2,8,0,1568.829555,0.153589571,0.249233288,148.0366972,9.838071159,295.6975165,1.243180609,0.828468283,315.8179016
USA,Austin,32614,Butler Trail: Boardwalk,2022,38,30.254826,-97.742666,5409,10,19,3.8,3752.491,197.4995263,3.4,10,2501.615,11,227.4195455,1.09464606,6,4,119,79,1,0,0,1,675.7525619,0.134578765,0.240859499,137.75,4.041405021,296.1780185,2.108159172,0.810492815,249.3285522
USA,Austin,32614,Butler Trail : Longhorn Dam ,2022,38,30.248927,-97.71404,3496,0,0,0,0,0,0,0,0,0,0,0,0,0,83,95,0,0,0,0,1380.233911,0.16225642,0.288113854,134.6064815,2.620742514,294.9664352,1.843790185,0.805192605,57.69272614
USA,Austin,32614,Southern Walnut Creek Trail,2022,38,30.262292,-97.684256,1122,11,24,4.363636364,2916.03,121.50125,2.636363636,9,1458.015,12,121.50125,1.117912679,9,0,26,102,0,0,0,0,522.6507666,0.569965151,0.178140441,140.196347,3.037480539,295.2714755,1.01418533,0.743837504,215.9644623
USA,Austin,32614,Upper Boggy Creek,2022,38,30.279984,-97.708688,676,24,57,4.75,8170.876,143.3487018,3.25,23,4211.627,31,135.8589355,1.0414777,15,8,60,0,2,1,0,1,499.6208099,0.292144262,0.205723499,166.0045662,2.28454749,296.6351134,0.55239121,0.915415385,100.0697021
USA,Austin,32614,Manor PC,2022,38,30.284118,-97.720236,1631,48,134,5.583333333,13558.801,101.1850821,3.541666667,47,7168.596,72,99.56383333,1.008663483,19,28,109,161,0,1,11,1,256.5905819,0.333457072,0.152373964,188.9318182,2.854006174,297.4512074,0.515637483,0.874263755,312.2375183
USA,Austin,32614,Shoal Creek Trail & 24th St,2022,38,30.286414,-97.75344,803,28,62,4.428571429,8598.46,138.6848387,2.892857143,24,4450.7,32,139.084375,1.025185353,20,3,118,118,0,0,0,0,569.1355884,0.479411296,0.152955787,164.3568075,8.83359003,296.6610732,0.441592352,0.817129442,202.7221069
USA,Austin,32614,Shoal Creek Trail & 9th St,2022,38,30.273953,-97.751702,1455,25,52,4.16,6578.433,126.5083269,3.16,22,3371.385,28,120.4066071,1.001006067,12,10,168,129,0,0,3,1,842.3116133,0.319617495,0.194121893,151.0280374,4.810343108,297.9710499,0.7213623,0.838348671,117.0378723
USA,Austin,32614,Butler Trail : Crenshaw Bridge ,2022,38,30.274733,-97.770673,2503,12,13,2.166666667,5704.951,438.8423846,2.916666667,11,4543.79,11,413.0718182,1.116539865,10,1,108,45,3,1,0,0,1287.92024,0.287911889,0.256354492,141.3009259,6.087114432,295.382921,1.549486034,0.874643016,2.134131432
USA,Austin,32614,Butler Trail: South Lamar,2022,38,30.264368,-97.756035,3707,20,40,4,4208.897,105.222425,3.35,20,2815.759,27,104.2873704,1.003807671,13,4,53,53,3,1,0,0,2646.857531,0.298073305,0.230055178,138.4117647,6.437843928,295.8313419,1.264194437,0.918200983,128.9983978
USA,Austin,32614,Mopac at Barton Creek,2022,38,30.242933,-97.810155,581,8,7,1.75,4109.13,587.0185714,2.625,7,4109.13,7,587.0185714,1.202533293,6,0,105,0,0,0,0,0,5.487360485,0.564282389,0.191860612,179.0502283,4.651531632,294.885488,0.624350548,0.683465793,37.00470734
USA,Austin,32614,Northern Walnut Creek Trail,2022,38,30.401918,-97.685215,1909,0,0,0,0,0,0,0,0,0,0,0,0,0,0,0,1,0,0,0,2199.804543,0.523039323,0.169652132,207.5909091,3.727771585,294.7000533,1.210954632,0.894361918,1.054497361
USA,Minneapolis,32615,Central Ave,2021,38,45.014335,-93.247347,142,21,64,6.095238095,9660.622,150.9472188,4,21,4830.311,32,150.9472188,1.00001971,1,19,61,74,2,8,7,1,414.5505425,0.33494718,0.19539261,259.5363636,1.753838765,285.9654119,0.91486014,0.646990883,402.7554626
USA,Minneapolis,32615,Franklin Tower,2021,38,44.962704,-93.224738,6081,40,84,4.2,9841.991,117.1665595,3.25,40,5903.275,55,107.3322727,1.023088598,29,9,126,126,1,2,1,0,1447.999717,0.379473166,0.30257332,238.5117371,12.81636656,283.7058392,1.007620815,0.757515421,175.0476837
USA,Minneapolis,32615,Park Ave Northbound,2021,38,44.952765,-93.265124,1315,24,54,4.5,9289.486,172.0275185,3.958333333,24,5996.832,36,166.5786667,1.000254767,2,21,113,86,1,7,1,0,0,0.302138286,0.147508985,262.6849315,2.552874889,286.524151,0.36866603,0.638526582,980.0021973
USA,Minneapolis,32615,West River Greenway,2021,38,44.94476,-93.20328,6873,19,47,4.947368421,7562.14,160.8965957,3.105263158,17,3877.049,24,161.5437083,1.029375574,11,6,113,0,1,0,0,0,1028.115583,0.335293319,0.277053722,234.0684932,13.96962991,283.1874643,1.277628435,0.831123265,149.8283081
Netherlands,Almere,32631,Dunloppad,2019,36,52.346795,5.190189,25076,8,7,1.75,4015.756,573.6794286,2.375,5,4015.756,7,573.6794286,1.00532873,4,1,52,29,0,0,0,0,996.5003478,0.61721316,0.214411157,0.059360731,2.19196156,288.8247539,1.660992719,0.936776073,237.7836609
Netherlands,Almere,32631,Farflerpad,2019,36,52.344117,5.181989,2596,8,7,1.75,5248.717,749.8167143,2.75,7,5248.717,7,749.8167143,1.172832847,7,0,42,28,0,0,0,0,989.5905478,0.578598054,0.227891044,-0.686915888,2.281603966,289.6832469,1.59686571,0.969398929,303.2261658
Netherlands,Almere,32631,Guilmetpad,2019,36,52.33783,5.166146,6712,4,3,1.5,2292.147,764.049,2,2,2292.147,3,764.049,1.010663404,2,0,45,26,0,0,0,0,775.7981986,0.583553553,0.204298158,-2.811059908,1.379997756,289.9971918,1.536203349,0.850710339,164.3158569
Netherlands,Almere,32631,Busbaanbrug,2019,36,52.352676,5.172289,40724,27,41,3.037037037,10714.568,261.3309268,3.148148148,25,7707.202,33,233.5515758,1.029880452,17,8,0,40,0,1,0,0,500.5816741,0.371817693,0.232018794,-4.652777778,0.974105319,293.3139468,1.240331316,0.825100256,260.209259
Netherlands,Almere,32631,Krompoort,2019,36,52.34425,5.21894,28276,63,137,4.349206349,8460.778,61.75750365,2.984126984,56,5131.367,83,61.8236988,1.117365826,43,13,0,61,0,0,0,0,980.3582806,0.524559886,0.179472473,-2.033018868,1.304507548,290.7867409,0.847660021,0.966794925,482.1026306
Netherlands,Almere,32631,Ambachtsmarkt,2019,36,52.341719,5.224953,34504,63,126,4,9019.722,71.58509524,2.650793651,51,5469.84,77,71.03688312,1.169143846,49,2,51,53,0,0,0,1,605.1017818,0.473450766,0.194023194,-1.162790698,1.413065817,291.2501817,0.989578453,0.968681906,451.9816284
Netherlands,Almere,32631,Pedersenpad,2019,36,52.338087,5.230673,41932,31,65,4.193548387,9071.089,139.5552154,3.258064516,29,5327.153,43,123.8872791,1.182291986,17,12,59,26,0,0,0,1,1598.437523,0.561007212,0.18591205,-2.105022831,1.056798981,290.3705051,1.333552072,0.989921676,413.5053711
Netherlands,Almere,32631,Spoorbaanpad vanaf Jonsonspad,2019,36,52.38305,5.264791,6988,16,44,5.5,3709.23,84.30068182,3,15,1854.615,22,84.30068182,1.11978423,13,2,59,59,0,0,0,0,1397.857614,0.576102085,0.187398415,-4.128440367,1.275031336,290.4642166,1.074835538,0.924191488,269.9915466
Netherlands,Almere,32631,Geuzenpad,2019,36,52.385521,5.257554,66972,25,62,4.96,8879.675,143.2205645,3.52,25,4804.04,35,137.2582857,1.132827122,10,14,0,61,0,0,0,0,1906.460554,0.536491433,0.202229619,-5.126760563,1.243909981,290.7299369,0.928296401,0.777994553,237.7986145
Netherlands,Almere,32631,Pirellipad,2019,36,52.392738,5.247987,61224,7,12,3.428571429,5420.222,451.6851667,2.428571429,4,2710.111,6,451.6851667,1.037911632,2,2,55,55,0,0,0,0,1254.619541,0.566991765,0.178333124,-5.427272727,1.423562055,291.4937145,1.500006501,0.668996526,193.0749817
Netherlands,Almere,32631,Chopinpad,2019,36,52.367608,5.19125,79180,55,123,4.472727273,11877.121,96.56195935,2.981818182,50,6171.193,67,92.10735821,1.056364694,42,7,59,27,7,2,2,1,1498.597192,0.349143215,0.168603921,-2.646788991,1.259464631,291.8992259,0.845135789,0.773869802,558.9904175
Netherlands,Almere,32631,Tjaikowskypad,2019,36,52.365863,5.193832,71260,58,141,4.862068966,11939.19,84.67510638,3,52,6275.628,75,83.67504,1.030858863,36,14,0,56,0,0,1,1,1017.6013,0.391701399,0.182077363,-2.716894977,1.424584356,290.8289812,0.767412731,0.846872228,471.3138123
Netherlands,Almere,32631,Transferium 't Oor,2019,36,52.355182,5.210387,30452,37,66,3.567567568,10093.599,152.9333182,3.135135135,32,7041.366,51,138.066,1.07735256,18,13,27,27,1,6,0,0,699.4405857,0.534170216,0.227293705,-2.255707763,2.020082241,290.3355273,1.167184095,0.866266658,225.7494965
Netherlands,Almere,32631,Cinemadreef tpv Stadswetering,2019,37,52.372506,5.225716,58360,47,97,4.127659574,11151.998,114.9690515,3.234042553,42,6910.69,64,107.9795312,1.169638887,21,21,43,23,0,0,0,0,1666.725016,0.411225145,0.199328184,-2.342465753,2.186838034,291.5280751,0.657690005,0.821412591,473.5537109
Netherlands,Almere,32631,Judy Garlandbrug,2019,37,52.370957,5.226206,153500,50,104,4.16,11310.865,108.7583173,3.12,44,6772.124,66,102.6079394,1.171547365,26,18,34,51,0,0,0,0,1528.475795,0.38435106,0.185459858,-1.666666667,1.984720937,291.9240332,1.424329288,0.944403912,478.5074158
Netherlands,Almere,32631,Fongerspad,2019,37,52.368851,5.226168,73744,15,32,4.266666667,2988.26,93.383125,2.6,11,1494.13,16,93.383125,1.11626132,9,2,0,39,0,0,0,0,1239.356243,0.356303915,0.278760494,-2.97260274,2.510103435,290.8385417,2.747300843,0.955575301,248.234024
Netherlands,Almere,32631,Rooseveltbrug,2019,37,52.377701,5.221937,30232,35,69,3.942857143,7025.439,101.8179565,2.857142857,29,4683.309,44,106.4388409,1.055223488,22,7,55,59,0,0,0,0,2149.038284,0.441562922,0.197842476,-2.177272727,1.705720807,291.106321,0.712988459,0.945636738,631.0125122
Netherlands,Almere,32631,Markerkant,2019,37,52.380747,5.215017,27024,36,77,4.277777778,11803.115,153.2872078,3.333333333,34,7492.538,48,156.0945417,1.069975505,17,15,4,23,0,0,0,0,658.2167798,0.408224509,0.210735228,-2.859813084,1.443312637,292.6598642,0.929098048,0.811171859,598.1331787
Netherlands,Almere,32631,Melissepad,2019,37,52.379162,5.210936,34108,43,103,4.790697674,12013.028,116.6313398,3.209302326,39,6947.95,55,126.3263636,1.07267158,22,17,44,39,0,0,0,0,903.1826501,0.468845699,0.176649789,-3.314553991,1.356474446,291.138626,0.540571944,0.769469284,451.1100464
Netherlands,Almere,32631,Landvoogdpad,2019,37,52.375944,5.213568,54844,48,104,4.333333333,10478.377,100.753625,3.375,45,6978.294,71,98.28583099,1.055762451,21,24,55,55,0,0,0,0,1506.343139,0.358687505,0.177517348,-1.867579909,3.234488673,290.9189319,0.432135094,0.769911277,590.9232788
Netherlands,Almere,32631,Spoorbaanpad tpv Hoogezandbrug,2019,37,52.374016,5.213907,84040,51,104,4.078431373,7403.242,71.18501923,3.333333333,49,5047.944,77,65.55771429,1.056202766,24,23,55,55,0,0,1,1,1981.148873,0.354567952,0.167406324,-1.416666667,2.871072196,291.3009259,0.537849184,0.820458187,570.8028564
Netherlands,Almere,32631,Hengelostraat,2019,37,52.366787,5.214433,38764,10,18,3.6,1929.038,107.1687778,2.2,6,964.519,9,107.1687778,1.107129434,6,0,58,61,0,0,9,0,1454.700322,0.201474591,0.226679099,-3.936073059,2.32035368,290.1112657,2.487624146,0.727808375,337.7813416
Netherlands,Almere,32631,Deventerstraat,2019,37,52.367827,5.214491,141956,37,68,3.675675676,7358.872,108.2187059,2.621621622,28,3861.683,41,94.18739024,1.16820334,22,5,0,23,0,1,11,1,1424.485221,0.268781857,0.190857296,-3.415525114,2.008187823,291.5494792,2.003397809,0.671536757,415.8196716
Netherlands,Almere,32631,Giethoornpad,2019,37,52.369562,5.213886,70552,41,81,3.951219512,8963.921,110.6656914,2.853658537,34,4917.639,51,96.42429412,1.230189036,22,10,25,60,0,2,11,2,2336.283473,0.310850626,0.182577931,-2.288990826,1.548591515,292.7227458,1.059998446,0.709143789,494.4988098
Netherlands,Almere,32631,Zuidwoldepad,2019,37,52.371509,5.213761,55280,42,75,3.571428571,7324.946,97.66594667,3.119047619,39,4411.693,53,83.23949057,1.207659301,24,13,29,0,2,2,3,2,2726.95169,0.320865183,0.165427833,-2.293023256,1.555992968,292.1597565,1.069489916,0.685028409,566.4884644
Netherlands,Almere,32631,Kolkplein / Coevordenbrug,2019,37,52.370434,5.212797,57228,36,66,3.666666667,6819.569,103.326803,3,32,4148.516,47,88.26629787,1.221311626,16,12,0,59,0,2,1,2,2833.41171,0.349793135,0.172532149,-2.660465116,1.478864985,292.4043241,1.029440328,0.716918184,561.866333
Netherlands,Almere,32631,Ter Apelpad / Brug,2019,37,52.373065,5.21507,56288,51,104,4.078431373,8201.209,78.85777885,3.352941176,49,5629.308,78,72.17061538,1.12517025,23,24,33,61,2,0,14,2,1874.118588,0.309321073,0.171998127,-1.439814815,2.491854873,291.7371962,0.880294677,0.756087004,576.1511841
Netherlands,Almere,32631,PJ Oudpad tpv voetg entree Schoutgarage (fietspad station),2019,37,52.374555,5.217674,83284,36,68,3.777777778,5073.947,74.61686765,3.222222222,33,3543.255,50,70.8651,1.050443435,15,16,61,61,1,18,10,3,1623.24562,0.213216395,0.155774423,-0.598173516,2.695031171,291.9408711,0.969907813,0.569388686,625.4257813
Netherlands,Almere,32631,Mandelapad,2019,37,52.375303,5.220429,41508,40,81,4.05,8450.365,104.3254938,2.875,33,5288.887,51,103.7036667,1.146752547,20,11,0,0,1,18,5,3,2522.802543,0.267166831,0.1982072,-1.651376147,2.08918643,291.6791679,1.147888283,0.72288956,599.6210938
Netherlands,Almere,32631,Slapstickpad,2019,37,52.373938,5.22297,66840,42,84,4,7565.506,90.06554762,3,33,5015.798,57,87.99645614,1.18686359,15,18,61,55,1,0,3,3,2341.750645,0.315369026,0.207893769,-2.222727273,1.911789219,291.7583984,1.080716239,0.693795752,555.1565552
Netherlands,Almere,32631,Realiteitspad,2019,37,52.391616,5.220202,4328,18,31,3.444444444,6237.795,201.2191935,3.111111111,15,4846.352,23,210.7109565,1.020915992,7,8,56,37,0,0,0,0,761.1359256,0.720427825,0.133521691,-2.100917431,2.020286809,288.8485163,0.614990826,0.849453152,305.3244019
Netherlands,Almere,32631,Tuinkruidenpad,2019,37,52.388698,5.205427,12888,19,36,3.789473684,5276.737,146.5760278,2.631578947,13,4369.914,23,189.9962609,1.031851699,6,6,39,54,0,0,0,0,710.3584265,0.62440123,0.189676737,-2.195454545,2.085224486,289.9600142,1.267675039,0.817682786,235.6260529
Netherlands,Almere,32631,Clauspad,2019,37,52.385184,5.187083,38116,8,16,4,671.786,41.986625,2.25,5,335.893,8,41.986625,1.044023854,5,0,44,39,0,0,0,0,840.7572906,0.480102352,0.307228843,-4.626728111,1.074987894,289.0303139,0.932247855,0.846028147,188.9269714
Netherlands,Almere,32631,Spoorbaanpad,2019,38,52.357303,5.169485,489448,22,31,2.818181818,7766.091,250.5190645,3.090909091,20,6269.947,26,241.1518077,1.046072791,14,6,40,34,0,0,0,0,519.6502416,0.513262478,0.280918946,-3.876146789,1.46465383,292.0238317,2.218106662,0.797561353,228.5357971
Netherlands,Almere,32631,Burgerspad,2019,42,52.352776,5.20065,31600,4,3,1.5,1726.038,575.346,3,4,1726.038,3,575.346,1.216318833,2,1,56,23,0,0,0,0,822.2797333,0.627944137,0.209205654,-0.389140271,2.076080035,289.3251555,1.221419883,0.815519054,290.3177185
Netherlands,Almere,32631,Havendreef,2019,42,52.352566,5.194785,6076,31,60,3.870967742,9189.561,153.15935,3.290322581,28,7219.408,43,167.8932093,1.126098321,13,15,57,59,0,0,0,0,703.4665667,0.458263096,0.214752333,-0.926940639,1.515266377,292.3814569,1.128514244,0.866133877,461.3006897
Netherlands,Arnhem,32631,"Bovenbrug fietspad, van Bovenbrugseweg naar Renssenstraat, Arnhem",2019,41,51.985322,5.896912,15401,28,54,3.857142857,4364.333,80.82098148,3.035714286,27,3031.964,35,86.62754286,1.019270264,20,5,66,66,2,5,0,0,1226.906888,0.270654111,0.17970857,33.79816514,7.296197095,292.1348015,0.527546152,0.741516169,442.0901489
Netherlands,Arnhem,32631,"Noordelijke Parallelweg, van Frombergstraat naar Beaulieustraat, Arnhem",2019,41,51.985844,5.895989,9164,26,51,3.923076923,4134.595,81.0704902,3,24,2695.615,32,84.23796875,1.021821113,18,5,66,66,2,4,0,0,1099.72199,0.290072009,0.178780092,36.46976744,6.370554898,292.2240734,0.628199511,0.938929779,491.952301
Netherlands,Arnhem,32631,"Amsterdamseweg fietspaden, van Frombergstraat naar Beaulieustraat, Arnhem",2019,41,51.987372,5.896559,14314,49,110,4.489795918,8489.903,77.18093636,3.020408163,46,5158.279,65,79.35813846,1.012888454,35,9,16,16,1,5,0,2,1118.830625,0.335035737,0.190751572,39.89814815,4.957112015,292.4547526,0.912181077,0.986133289,487.1377258
Netherlands,Arnhem,32631,"Zijpendaalseweg fietspaden, van Van Pallandtstraat naar Burgemeestersplein, Arnhem",2019,41,51.98882,5.900083,17265,30,75,5,6943.659,92.58212,3.2,30,3683.706,40,92.09265,1.006976567,24,6,26,44,1,2,2,0,1055.936377,0.489576517,0.16259593,30.73972603,5.640753691,290.9271547,1.177076503,0.961235125,320.9924316
Netherlands,Arnhem,32631,"Zypsepoort (Willemsplein) fietspaden, van Amsterdamseweg naar Jansbuitensingel, Arnhem",2019,41,51.984915,5.904827,43564,54,99,3.666666667,8495.729,85.81544444,3.092592593,53,6581.458,73,90.1569589,1.068631474,36,12,0,66,6,15,22,2,2481.781419,0.252056682,0.169032947,23.14479638,3.434827293,292.4450827,0.595145754,0.692858792,502.0202026
Netherlands,Arnhem,32631,"Utrechtsestraat, van Nieuwe Plein naar Coehoornstraat, Arnhem",2019,41,51.983316,5.902694,23158,54,88,3.259259259,9002.781,102.3043295,3.018518519,50,7595.264,72,105.4897778,1.100010158,35,12,0,4,11,21,53,2,1743.181883,0.161232915,0.109923407,22.83561644,3.969105688,293.2034817,0.906659493,0.57618988,504.2270508
Netherlands,Arnhem,32631,"Gele Rijdersplein, van Willemsplein naar Jansplein, Arnhem",2019,41,51.983237,5.906943,51302,18,23,2.555555556,2961.988,128.782087,3.222222222,18,2961.988,23,128.782087,1.095432205,10,6,121,1,12,6,73,0,1598.777512,0.198933328,0.154357438,21.16742081,2.664332394,293.6575403,1.165394992,0.66140408,542.0598145
Netherlands,Arnhem,32631,"Apeldoornseweg fietspaden, van Sonsbeekweg naar Sint Peterlaan, Arnhem",2019,41,51.98965,5.90803,7278,40,84,4.2,6650.385,79.17125,3.225,39,4226.877,53,79.75239623,1.030941907,28,11,0,0,2,4,7,0,1265.05578,0.465790216,0.166768478,43.32876712,9.325256314,292.3376855,1.319121785,0.926535861,343.7558594
Netherlands,Arnhem,32631,"Hommelseweg, van Spoorwegstraat naar Paterstraat, Arnhem",2019,41,51.984932,5.914253,18555,95,174,3.663157895,10870.789,62.47579885,3.042105263,90,8876.644,131,67.76064122,1.055052869,65,18,14,69,2,4,14,8,1457.826297,0.234886045,0.125001997,22.92237443,3.035317504,294.2823559,0.729606952,0.686973752,549.5001221
Netherlands,Arnhem,32631,"Oude Kraan fietspad, van Bergstraat naar Nieuwe Plein, Arnhem",2019,41,51.981505,5.901839,17829,54,90,3.333333333,10813.647,120.1516333,3.018518519,51,8888.604,70,126.9800571,1.134779981,36,11,56,14,6,3,44,1,1700.327852,0.177720208,0.148013248,17.19178082,5.278519063,292.946347,1.192857538,0.596300179,445.4987793
Netherlands,Arnhem,32631,"Velperbinnensingel fietspad, van Nieuwstad naar Koningsplein, Arnhem",2019,41,51.981574,5.913381,47089,47,81,3.446808511,5754.641,71.04495062,2.914893617,43,4469.656,59,75.75688136,1.048973387,36,4,54,14,8,5,21,6,1302.58973,0.25002325,0.159682363,16.63181818,2.164987164,293.8839134,1.009486334,0.751482434,521.079834
Netherlands,Arnhem,32631,"Steenstraat, van Bloemstraat naar Tuinstraat, Arnhem",2019,41,51.983826,5.916475,23548,81,137,3.382716049,9314.843,67.99155474,3.086419753,77,7586.008,107,70.89727103,1.05371165,53,18,0,0,2,0,20,8,1163.111606,0.22118667,0.118063978,19.50228311,2.67983239,294.8648866,0.617676137,0.614774225,596.5852661
Netherlands,Arnhem,32631,"Sonsbeeksingel (Arnhem), fietsstroken (weg gemengd verkeer)",2019,36,51.985413,5.919417,16916,79,142,3.594936709,9492.419,66.84802113,3.025316456,74,7376.543,105,70.25279048,1.051938422,56,15,0,0,0,2,7,5,960.1740939,0.245042964,0.126076613,20.45205479,3.005509838,294.3939783,0.653232724,0.674915194,589.6137695
Netherlands,Arnhem,32631,"Sonsbeeksingel, van Paulstraat naar Roosendaalsestraat, Arnhem",2019,41,51.985428,5.919414,15726,80,147,3.675,9634.454,65.5405034,3.0375,75,7425.733,108,68.75678704,1.051145634,56,16,0,0,0,2,7,5,959.8315042,0.244930258,0.125643071,20.46330275,3.007792953,294.3891736,0.650858896,0.676159609,589.6137695
Netherlands,Arnhem,32631,"Velperpoort Fietstunnel, van Ir. J.P. Van Muijlwijkstraat naar Sonsbeeksingel, Arnhem",2019,41,51.985175,5.919766,45427,78,138,3.538461538,9305.778,67.43317391,3.038461538,73,7258.37,103,70.46961165,1.044652483,56,15,0,0,0,2,4,5,985.4640054,0.248264657,0.132321224,19.79908676,2.62335821,294.3799943,0.697812681,0.660034407,558.937439
Netherlands,Arnhem,32631,"Roosendaalsestraat, van Atjehstraat naar Hoflaan, Arnhem",2019,41,51.988889,5.925783,19601,55,112,4.072727273,10689.881,95.44536607,3.036363636,52,6824.661,68,100.3626618,1.080170866,40,10,0,0,1,4,3,1,688.470135,0.268539695,0.132070821,27.52803738,6.328001772,293.5661872,0.558075931,0.826867938,468.0712585
Netherlands,Arnhem,32631,"Airborneplein Fietstunnel Stadszijde, van St. Walburgisplein naar Airborneplein, Arnhem",2019,41,51.978715,5.91438,62827,80,138,3.45,10094.626,73.14946377,2.925,75,7117.512,102,69.77952941,1.039640184,69,5,54,0,4,9,0,0,2226.839274,0.291717887,0.176554551,15.65909091,1.798271668,293.245419,0.862687564,0.758845749,483.7552795
Netherlands,Arnhem,32631,"Rijnkade (boven), van Roermondseplein naar Vossenstraat, Arnhem",2019,41,51.97949,5.901977,2672,41,67,3.268292683,11895.496,177.5447164,3,38,9041.483,52,173.8746731,1.189976497,26,9,111,0,2,0,6,1,1450.741014,0.133495148,0.183526017,11.88479263,4.596191479,291.1765913,1.569587364,0.715986496,284.1837463
Netherlands,Arnhem,32631,"Nelson Mandelabrug, fietspad",2019,36,51.97811,5.89932,46647,10,15,3,7596.351,506.4234,2.2,6,4875.104,9,541.6782222,1.372686064,6,0,105,105,0,2,0,0,634.2081861,0.324805715,0.297003134,10.88018433,3.839453682,290.2373452,0.806549502,0.823345977,207.1961823
Netherlands,Arnhem,32631,Fietspad Vosdijk (onderdoorgang spoor),2019,36,51.98255,5.931724,13840,13,27,4.153846154,2944.503,109.0556667,3,13,2001.022,17,117.7071765,1.3298088,9,2,0,111,0,0,0,0,690.40293,0.398537067,0.159530181,13.36818182,3.628909975,292.5013849,0.70438422,0.931838462,299.7965088
Netherlands,Arnhem,32631,"Stadhoudersstraat, fietspad",2019,36,51.977983,5.924949,26021,51,102,4,10110.275,99.12034314,3.078431373,48,6734.895,67,100.5208209,1.057126502,38,10,54,0,0,2,2,1,681.3392795,0.312266727,0.139721327,13.53881279,1.529646289,294.2304331,0.615167326,0.893887741,496.8867798
Netherlands,Arnhem,32631,"Voetiusstraat fietspaden, van Johan De Wittlaan naar Ijssellaan, Arnhem",2019,41,51.980895,5.935425,19395,44,92,4.181818182,6850.099,74.45759783,3.204545455,43,4834.538,64,75.53965625,1.108204075,27,12,54,74,0,2,0,1,1390.242475,0.386693627,0.177221008,11.92727273,2.105011729,292.4891513,0.930243288,0.80341014,284.5545044
Netherlands,Arnhem,32631,"Johan de Wittlaan, fietspad",2019,36,51.978514,5.93779,27406,29,61,4.206896552,7446.873,122.0798852,2.965517241,26,4352.289,37,117.6294324,1.155645373,19,6,0,0,0,2,0,0,571.4909079,0.409207649,0.212714986,11.77209302,2.265856333,293.203343,2.122237834,0.88146021,341.0171509
Netherlands,Arnhem,32631,Fietspad Ruitenberglaan,2019,36,51.987957,5.945954,12259,15,26,3.466666667,2668.341,102.6285,3,12,1941.095,17,114.1820588,1.001202847,6,6,0,0,2,0,1,0,508.6194652,0.470393532,0.208605979,15.01369863,3.462096723,290.7110088,1.582116102,0.951938258,193.9393768
Netherlands,Arnhem,32631,"Westervoortsedijk fietspaden, van Oude Veerweg naar Zevenaarseweg, Arnhem",2019,41,51.971649,5.948607,4238,25,42,3.36,4934.592,117.4902857,3.16,21,3542.852,33,107.3591515,1.048669465,10,10,60,59,0,0,0,0,1165.532823,0.257330273,0.163580307,12.66210046,1.742558128,294.8112158,1.815504803,0.727176005,265.3032837
Netherlands,Arnhem,32631,"Westervoortsedijk fietspaden, van Doctor C. Lelyweg naar Driepoortenweg, Arnhem",2019,41,51.97132,5.938157,6588,19,37,3.894736842,7213.444,194.9579459,3.210526316,16,4392.299,25,175.69196,1.156146689,7,8,0,105,0,6,0,0,1485.208872,0.194477699,0.141045604,12.75115207,2.256135732,296.2304147,1.285119206,0.811844338,437.2061157
Netherlands,Arnhem,32631,"Malburgse Bandijk fietspad, thv Stadswaardenlaan, Arnhem",2019,41,51.968168,5.923968,7762,25,56,4.48,5206.055,92.96526786,3.16,25,3096.049,32,96.75153125,1.037804557,21,4,16,54,0,0,0,0,1325.344727,0.409182924,0.337293305,9.325688073,2.582471033,291.2351634,1.557092806,0.828885909,171.8958588
Netherlands,Arnhem,32631,"Oude Zevenaarseweg fietspad, van Driepoortenweg naar Schaapdijk, Arnhem",2019,41,51.974294,5.951645,14159,15,23,3.066666667,5465.693,237.6388261,3.133333333,13,3348.7,18,186.0388889,1.015596277,8,4,65,66,0,4,0,0,1848.93105,0.290899222,0.187483536,12.40909091,1.889181903,294.4971591,1.959220863,0.765172897,394.6414185
Netherlands,Arnhem,32631,"Schaapdijk Tunnel, van Oude Zevenaarseweg naar Ringoven, Arnhem",2019,41,51.973292,5.954012,10570,27,43,3.185185185,6649.299,154.6348605,3.185185185,24,4604.218,37,124.4383243,1.021141491,14,9,55,55,0,2,0,0,1608.018608,0.35436283,0.202751184,12.89719626,1.908831318,293.0888581,2.183151686,0.730153791,288.3260803
Netherlands,Arnhem,32631,"Zevenaarseweg, fietspad",2019,36,51.97089,5.95696,35682,29,48,3.310344828,11406.74,237.6404167,3.172413793,24,8004.057,39,205.2322308,1.014582195,11,11,65,0,0,0,0,0,582.1570754,0.629799189,0.234572686,13.05479452,2.42827942,290.4170947,0.634599753,0.755284666,143.4209442
Netherlands,Arnhem,32631,"Fietspad Grote Griet, van Drielsedijk naar Eldensedijk, Arnhem",2019,41,51.972789,5.893091,16033,3,6,4,1411.432,235.2386667,3,3,705.716,3,235.2386667,1.214619917,3,0,56,56,0,2,1,0,1218.150607,0.666999856,0.154355272,9.917808219,2.667682924,289.8709867,0.368987681,0.708276602,151.1501007
Netherlands,Arnhem,32631,"John Frostbrug, beide kanten fietspad",2019,36,51.97207,5.908763,71168,17,36,4.235294118,3744.241,104.0066944,3.235294118,17,2574.564,22,117.0256364,1.091620553,13,4,0,74,0,0,0,0,2911.933902,0.397773261,0.297118122,10.49090909,2.553946873,290.2834162,1.014121757,0.81242187,192.4142151
Netherlands,Arnhem,32631,"Huissensedijk (Hoefijzerpad), fietspad",2019,36,51.965465,5.889367,23496,19,30,3.157894737,6407.702,213.5900667,3.052631579,16,5176.296,26,199.0883077,1.287331291,12,2,56,0,0,3,0,0,1337.71363,0.479756932,0.188293067,10.21759259,2.332115901,291.291305,1.102179849,0.853095742,233.9685364
Netherlands,Arnhem,32631,"Batavierenweg fietspad, van Hollandweg naar Drielsedijk, Arnhem",2019,41,51.966796,5.877702,11634,12,20,3.333333333,5313.481,265.67405,3.083333333,12,3746.657,13,288.2043846,1.109458228,11,1,66,44,0,0,0,0,765.3812938,0.630696345,0.131494248,10.53521127,3.480991923,288.6032864,0.713183844,0.714924765,150.9309387
Netherlands,Arnhem,32631,"Drielsedijk, van Meginhardweg naar Hannesstraatje, Arnhem",2019,41,51.968371,5.870278,3737,8,16,4,5110.078,319.379875,2.25,5,2555.039,8,319.379875,1.079199931,5,0,88,32,0,0,0,0,650.2822051,0.597814973,0.141495581,8.046948357,1.582668034,289.5498826,0.491922753,0.758249261,106.930069
Netherlands,Arnhem,32631,"Brinksestraat, van Huissensedijk naar Kronenburgdijk, Arnhem",2019,41,51.958338,5.888728,22232,50,99,3.96,11389.222,115.0426465,2.84,43,7095.698,55,129.0126909,1.071621885,37,6,0,0,0,2,0,0,860.3127617,0.469442562,0.155647781,10.01809955,1.902519884,291.2457933,1.049613734,0.85072974,337.763855
Netherlands,Arnhem,32631,"Huissensedijk, weg gemengd verkeer",2019,36,51.95702,5.8895,19087,68,147,4.323529412,13671.201,93.00136735,2.823529412,58,7606.208,80,95.0776,1.133579977,50,8,124,61,0,3,0,0,1244.492365,0.37270622,0.15356338,10.17647059,1.539991254,292.2524745,1.181498399,0.837962327,337.7968445
Netherlands,Arnhem,32631,Fietspad Nijmeegseweg noordwest,2019,36,51.96129,5.89391,6721,35,54,3.085714286,4921.679,91.1422037,3.457142857,33,4921.679,54,91.1422037,1.003023592,13,20,0,0,0,0,1,1,1459.531381,0.311771212,0.17263101,13.2962963,4.144964056,291.9170284,1.162456699,0.833986332,348.4520569
Netherlands,Arnhem,32631,Fietspad Nijmeegseweg zuidoost,2019,36,51.96139,5.89557,21246,62,110,3.548387097,11730.702,106.6427455,3.161290323,54,9637.431,88,109.5162614,1.024437394,28,26,0,55,0,0,1,1,1732.080629,0.32227491,0.173758268,12.95,3.893146659,292.1500355,1.019148534,0.822473293,329.2840271
UK,London,32630,Haverstock Hill - Middle,2022,38,51.546912,-0.158725,6444,42,98,4.666666667,9124.648,93.10865306,2.785714286,35,4562.324,49,93.10865306,1.022888943,30,5,421,7,13,6,7,1,96.90759217,0.457068338,0.191737446,54.16438356,5.488086804,291.7118115,0.475068463,0.978498676,1720.317871
UK,London,32630,Tavistock Place,2022,38,51.525291,-0.12643,28354,54,119,4.407407407,10239.197,86.04367227,3.037037037,49,5892.152,69,85.39350725,1.019529606,33,14,4,259,44,7,47,10,764.4215893,0.230929687,0.181100625,34,3.982681402,292.8166763,0.640714264,0.82743479,2598.972412
UK,London,32630,Gordon Square,2022,38,51.52401,-0.12952,28159,40,81,4.05,8186.82,101.0718519,3,35,4657.478,48,97.03079167,1.00742172,21,12,0,0,67,7,16,2,736.0080376,0.303031192,0.212745941,35.63255814,3.093858953,292.4695494,0.627536092,0.748719253,1372.253052
UK,London,32630,St Pancras Way,2022,38,51.541805,-0.135489,7566,47,92,3.914893617,8804.975,95.70625,2.872340426,40,5312.643,57,93.20426316,1.03178974,32,8,354,235,19,7,14,2,1379.977485,0.350619836,0.182804371,31.56880734,2.836094266,293.1907253,0.515981506,0.694767042,2017.696777
UK,London,32630,Highgate Road,2022,38,51.55260978,-0.141982184,11052,41,93,4.536585366,8736.646,93.94243011,2.87804878,34,4683.107,52,90.05975,1.098105504,25,9,1,113,18,7,17,6,50.22597241,0.233866696,0.162000013,41.26635514,4.502241268,293.70161,0.667726016,0.816454951,1292.062988
UK,London,32630,Kentish Town Road,2022,38,51.54456586,-0.141383033,27728,54,111,4.111111111,10098.634,90.97868468,2.907407407,47,5669.706,65,87.22624615,1.035219696,36,10,256,256,34,6,24,4,771.6091356,0.333719288,0.179050659,32.70319635,2.208025795,293.784532,0.505491222,0.68280111,1636.841797
UK,London,32630,Prince of Wales Medical Ctr,2022,38,51.546285,-0.147245,11289,58,124,4.275862069,10614.214,85.5985,2.465517241,41,5399.713,64,84.37051563,1.032796102,34,5,0,0,20,4,6,3,548.8360517,0.344185725,0.176083311,32.44131455,2.248125387,293.8589349,0.576668691,0.809816183,1808.612793
UK,London,32630,York Way - South,2022,38,51.536428,-0.122477,10305,41,86,4.195121951,6767.65,78.69360465,2.658536585,33,3742.362,46,81.35569565,1.14755969,26,3,0,0,35,4,18,2,674.9267147,0.217380276,0.179503039,26.00456621,3.019718631,292.3276256,0.637089457,0.592141016,1391.057007
UK,London,32630,Tottenham Court Road,2022,38,51.523274,-0.136753,21383,55,99,3.6,7870.812,79.50315152,3.163636364,51,6010.574,73,82.33663014,1.043246251,30,19,286,0,49,5,37,6,1491.28993,0.130946784,0.134735484,36.44748858,2.394958669,292.9343607,0.561463171,0.664264404,1454.732056
UK,London,32630,Queens Crescent Middle,2022,38,51.54982149,-0.151706693,2825,36,74,4.111111111,6230.214,84.19208108,2.305555556,23,3115.107,37,84.19208108,1.10469273,22,1,180,0,24,3,2,2,331.5320937,0.328146549,0.176893535,41.27102804,3.150641808,293.4043151,0.54872347,0.899693248,2436.32666
UK,London,32630,Haverstock Hill - South,2022,38,51.545278,-0.155166,4081,40,91,4.55,6748.356,74.15775824,2.8,34,3701.154,51,72.57164706,1.054326716,30,4,333,133,9,9,5,1,902.2596532,0.365420002,0.175830598,40.87214612,4.925203142,292.5838684,0.656679944,0.990015491,2081.722168
UK,London,32630,Torriano Avenue,2022,38,51.54815234,-0.130962947,5430,55,99,3.6,8476.485,85.62106061,2.836363636,47,5227.024,64,81.67225,1.028395902,34,10,343,176,13,8,10,7,177.6093527,0.343858542,0.166076716,47.88127854,3.962675888,293.5177476,0.34105525,0.8040005,2071.748047
UK,London,32630,Stratford villas,2022,38,51.542912,-0.134053,3272,44,91,4.136363636,9062.152,99.58408791,2.931818182,39,5152.651,53,97.21983019,1.046617968,32,7,105,233,14,8,2,2,411.1127998,0.375936226,0.179146605,34.20187793,2.939387091,292.9662925,0.493474397,0.705767392,1736.957397
UK,London,32630,Royal College Street,2022,38,51.540333,-0.137026,17394,44,83,3.772727273,8439.093,101.6758193,2.931818182,39,5429.207,55,98.71285455,1.012437264,30,8,255,1,20,7,13,2,1749.800355,0.28875997,0.178831312,28.66818182,2.281125393,293.5384233,0.427017469,0.880096597,1243.877075
UK,London,32630,Killburn road north,2022,38,51.544449,-0.20116,12478,35,77,4.4,8333.394,108.2258961,2.857142857,29,4326.858,40,108.17145,1.024683936,22,7,175,0,12,4,20,6,41.08215901,0.392263919,0.229337116,46.63013699,2.50209145,293.8624608,0.600207377,0.745524078,1671.111328
UK,London,32630,Adelaide Road East,2022,38,51.54386334,-0.156391736,2277,31,73,4.709677419,6201.248,84.94860274,2.935483871,28,3274.797,40,81.869925,1.056600088,24,4,0,0,12,6,8,1,420.4984496,0.356418682,0.18128844,39.95890411,4.255874338,292.3555936,0.684325714,0.974178088,1664.943237
UK,London,32630,Torriano Avenue New,2022,38,51.54810715,-0.131049216,5430,56,101,3.607142857,9005.495,89.16331683,2.839285714,48,5491.529,65,84.48506154,1.029184931,35,10,417,52,11,8,10,6,173.2113795,0.345719264,0.166414041,47.49315068,4.085132709,293.5287529,0.340658577,0.818232035,2071.748047
UK,London,32630,Grafton Way,2022,38,51.524137,-0.136125,2869,53,98,3.698113208,9217.631,94.05745918,3.188679245,50,6995.445,71,98.52739437,1.03481645,30,18,0,268,52,9,39,7,1252.088183,0.115772918,0.113292701,35.23474178,2.929742983,292.6173342,0.878186003,0.68085464,977.3615723
UK,London,32630,Queens Crescent South,2022,38,51.54940935,-0.152604041,2092,42,91,4.333333333,8287.502,91.07145055,2.404761905,29,4224.199,47,89.87657447,1.106456302,28,1,112,7,22,3,3,2,368.1260446,0.332336457,0.176295515,41.99539171,4.021254242,293.2430876,0.559490302,0.90305584,2344.425537
UK,London,32630,Pancras Road,2022,38,51.534718,-0.13054,20153,46,91,3.956521739,8942.31,98.26714286,2.739130435,38,5309.764,55,96.54116364,1.035950099,35,2,0,348,6,4,2,0,1717.934676,0.352468975,0.217323728,23.93577982,2.520649506,292.8040066,0.847279582,0.723823462,726.0202637
UK,London,32630,Prince of Wales Road,2022,38,51.54593,-0.152535,6277,57,117,4.105263158,10031.104,85.73593162,2.596491228,43,5342.528,64,83.477,1.045305308,38,5,307,261,13,10,6,3,1327.834926,0.319170288,0.161148058,36.85388128,3.60575656,293.2065318,0.471244336,0.939560714,2521.141357
UK,London,32630,Gower Street,2022,38,51.52135838,-0.131520148,14623,48,83,3.458333333,6887.053,82.97654217,2.979166667,43,4906.676,59,83.164,1.019379748,32,10,375,0,65,2,23,2,2369.935759,0.223611108,0.174107272,36.21395349,2.662537817,293.075436,0.717992533,0.871501401,1047.750977
UK,London,32630,Pratt Steet,2022,38,51.537991,-0.13887,4058,57,98,3.438596491,8698.77,88.76295918,3.01754386,52,6245.976,72,86.74966667,1.016740696,37,13,400,0,32,12,23,8,812.0149501,0.240920221,0.178712594,29.10185185,2.229598099,294.0774559,0.675472431,0.810319257,1774.084717
UK,London,32630,Chalk Farm Road,2022,38,51.543315,-0.151076,10742,33,62,3.757575758,5085.912,82.03083871,2.666666667,26,2918.996,39,74.84605128,1.071682409,23,3,9,9,23,9,29,6,400.5613989,0.23965563,0.165212195,33.65909091,2.202717143,293.9044034,0.58551971,0.670329421,1375.180298
UK,London,32630,Delancey Street,2022,38,51.536724,-0.142534,6733,64,101,3.15625,7980.388,79.01374257,2.734375,52,5634.584,74,76.14302703,1.010621657,39,10,307,0,34,13,49,13,414.1827182,0.239325213,0.179526565,32.99078341,2.72721526,294.0714106,0.706413071,0.837294467,1579.078369
UK,London,32630,Haverstock Hill - North,2022,38,51.550351,-0.164795,4610,46,110,4.782608696,10875.576,98.86887273,2.804347826,40,5437.788,55,98.86887273,1.030675893,37,3,323,0,12,6,9,2,649.8593405,0.371847483,0.185572295,70.95,3.966020446,292.8921697,0.480684063,0.974318927,1751.777344
UK,London,32630,Queens Crescent North,2022,38,51.55019954,-0.151076034,2984,31,62,4,5568.356,89.81219355,2.258064516,19,2784.178,31,89.81219355,1.12681144,18,1,268,0,25,3,2,2,268.4330028,0.334503921,0.179702671,41.15,2.763438241,293.4779297,0.639814847,0.901948124,2267.268066
UK,London,32630,Killburn road south,2022,38,51.541061,-0.196887,13988,51,110,4.31372549,9516.687,86.51533636,2.901960784,45,5743.953,62,92.64440323,1.026637058,38,7,53,70,28,6,20,12,426.1203929,0.240873959,0.147895367,42.65,3.134884368,294.5892933,0.327074217,0.739985984,2519.45752
UK,London,32630,York Way - North,2022,38,51.544405,-0.12625,9966,28,59,4.214285714,10067.49,170.6354237,2.964285714,26,5336.563,34,156.9577353,1.154028861,21,4,350,328,10,9,4,3,517.4134996,0.316832626,0.208864381,43.05990783,4.505102687,294.2204421,0.979099493,0.949579547,1188.59021
UK,London,32630,Grays Inn Road - North,2022,38,51.522967,-0.114348,9019,60,131,4.366666667,11429.583,87.24872519,2.75,48,6305.285,72,87.57340278,1.046599282,35,11,333,226,64,12,28,2,474.8564862,0.196220157,0.148127872,28.11363636,3.716155816,293.7208807,0.493708859,0.725949716,1817.725708
UK,London,32630,Camden Park Road,2022,38,51.54645327,-0.128095921,5262,56,110,3.928571429,12010.765,109.1887727,2.964285714,52,7209.366,71,101.5403662,1.096781748,40,9,428,354,13,8,3,3,692.5530019,0.360107736,0.183115481,48.88479263,3.275463745,293.2997552,0.535968316,0.770296224,1877.637329
UK,London,32630,Grays Inn Road - South,2022,38,51.519125,-0.111883,7991,43,81,3.76744186,6858.582,84.67385185,2.930232558,39,4449.729,50,88.99458,1.014344773,26,9,0,32,29,9,30,2,667.9610415,0.216290299,0.19848912,29.94977169,3.467031607,293.5020691,0.510023967,0.85308393,743.4636841
UK,London,32630,Adelaide Road West,2022,38,51.54285861,-0.168000345,865,68,162,4.764705882,11865.884,73.24619753,2.676470588,54,5932.942,81,73.24619753,1.040043068,48,6,232,175,4,4,0,1,16.8217743,0.410632636,0.178829336,55.97727273,3.33636054,292.0947443,0.446938109,0.790043733,1665.681519
UK,London,32630,Royal College Street North,2019,38,51.54213,-0.1388,11748,70,146,4.171428571,12432.854,85.15653425,2.9,61,7689.933,92,83.58622826,1.018998084,46,13,0,0,25,11,18,3,1967.114466,0.31187106,0.165790728,30.93119266,2.747783001,293.6071531,0.26982851,0.87225737,1442.911499
UK,London,32630,Royal College Street,2019,38,51.53675,-0.13424,6685,37,71,3.837837838,6989.492,98.4435493,3.054054054,35,4815.048,50,96.30096,1.036084067,27,7,58,186,22,4,1,1,1553.742852,0.266705555,0.182493479,26.07727273,2.659191917,293.5558239,0.811307085,0.837072785,1580.190308
UK,London,32630,Pancras Road,2019,38,51.53469,-0.13074,17242,44,88,4,7877.39,89.51579545,2.727272727,36,4682.637,53,88.35164151,1.039554164,33,2,0,347,6,4,2,0,1712.816044,0.350600542,0.214359049,24.01369863,2.520200492,292.8106985,0.794262004,0.72247674,907.6159668
UK,Northampton,32630,Rushmere Rd,2022,38,52.234516,-0.861974,1084,11,16,2.909090909,4880.198,305.012375,2.454545455,7,3612.372,10,361.2372,1.06283721,5,2,0,0,0,0,1,0,760.9097162,0.695760985,0.15884064,61.23287671,6.069281621,291.1466182,0.916454917,0.776539591,60.87707138
UK,Northampton,32630,Harlestone Road,2022,38,52.256652,-0.943887,1092,22,44,4,6923.472,157.3516364,2.681818182,18,3461.736,22,157.3516364,1.086504635,17,1,62,54,0,0,0,0,757.7940246,0.3104589,0.198926723,92.27149321,2.222580954,298.5677319,0.627717073,0.673528812,210.1991882
UK,Northampton,32630,Mereway,2022,38,52.215386,-0.907559,807,23,44,3.826086957,2790.11,63.41159091,2.130434783,13,1395.055,22,63.41159091,1.070292722,13,0,100,74,0,0,1,0,1130.608322,0.487858766,0.212392106,105.4429224,2.149690994,293.8952626,0.744441107,0.98406004,445.650116
UK,Northampton,32630,Kettering Road North,2022,38,52.271899,-0.85328,2175,35,64,3.657142857,6229.868,97.3416875,2.714285714,30,3534.084,41,86.19717073,1.033603373,30,0,103,6,0,2,1,1,515.708065,0.481167674,0.223841574,110.9861111,4.240980808,290.3784722,0.671723941,0.880226075,287.1455994
UK,Northampton,32630,Newport Pagnell Road,2022,38,52.210617,-0.891126,707,29,50,3.448275862,5905.623,118.11246,2.517241379,22,4284.673,30,142.8224333,1.060615038,22,0,65,65,0,0,1,1,947.0615002,0.470854125,0.242466706,108.8356164,1.701573529,293.6673088,0.821285052,0.952763251,164.8058167
UK,Northampton,32630,A5123 The Racecourse - TTech Totem,2022,38,52.246468,-0.882447,2214,42,96,4.571428571,10983.468,114.411125,3.214285714,42,6042.742,52,116.2065769,1.010059574,33,9,107,26,1,2,8,6,639.1949279,0.403880367,0.206348636,97.12272727,2.874406155,295.7899148,0.72507695,0.918678856,1095.733398
UK,Northampton,32630,Bradlaugh Fields,2020,38,52.260447,-0.869983,1199,26,57,4.384615385,6138.222,107.6881053,2.884615385,23,3239.757,30,107.9919,1.057599516,20,3,108,108,0,0,1,0,117.8516719,0.470224025,0.200457622,104.4045455,4.591986822,290.3656428,1.507838622,0.92550109,457.5680542
UK,Northampton,32630,Caswell Road A508 Kingsthorpe - TTech Totem,2021,38,52.219646,-0.873344,1064,25,37,2.96,5291.088,143.0023784,3,25,3707.881,30,123.5960333,1.019421214,25,0,55,0,0,0,0,0,786.7889534,0.248903604,0.225800613,68.52336449,3.45016807,293.5537566,1.451753988,0.734267081,24.05982971
UK,Northampton,32630,A508 Kingsthorpe - TTech Totem,2022,38,52.263059,-0.899966,859,51,100,3.921568627,11179.853,111.79853,2.764705882,43,6242.981,61,102.3439508,1.015482794,35,6,0,65,0,6,6,5,354.3818113,0.342585659,0.209717003,93.86574074,4.362671243,294.2434353,1.262091589,0.829844873,650.6397095
UK,Northampton,32630,Harlestone Road,2022,38,52.25646,-0.943472,1313,20,40,4,6580.698,164.51745,2.65,16,3290.349,20,164.51745,1.090703759,15,1,78,55,0,0,0,0,763.2286529,0.309749582,0.203379128,92.26605505,2.438762665,298.4228426,0.720828847,0.635277931,228.1296997
UK,Northampton,32630,A428 Bedford Road - TTech Totem,2022,38,52.232967,-0.882878,1665,21,39,3.714285714,3759.734,96.4034359,2.571428571,15,2242.159,25,89.68636,1.034253515,12,3,89,26,0,1,0,0,1088.381683,0.420644414,0.272130879,62.91705069,3.829612314,293.1376548,1.672873859,0.803321149,246.3454895
UK,Northampton,32630,Mare Fair - TTech Totem,2022,38,52.236789,-0.904313,1550,64,116,3.625,9811.334,84.58046552,2.953125,57,6839.905,86,79.53377907,1.083379693,47,8,65,0,1,4,7,2,343.5193375,0.347104312,0.246338709,67.41363636,4.706552053,293.9397372,1.075827202,0.86367496,98.65090179
UK,Leeds,32630,Cycle Counter Canal Towpath Shipley,2021,38,53.83538,-1.7739,1803,60,111,3.7,7918.497,71.33781081,2.8,47,5148.216,78,66.00276923,1.030536421,32,13,198,40,5,5,7,2,610.8604499,0.223500969,0.138039954,72.77727273,5.71922053,285.3298828,0.585462593,0.702030626,185.6791534
UK,Leeds,32630,A647 Bradford Road Cycle Superhighway (eastbound),2021,38,53.8029,-1.69942,772,32,55,3.4375,6777.067,123.2194,2.59375,25,4212.43,34,123.895,1.036204134,22,2,186,217,0,6,3,1,1202.739054,0.508573149,0.24730808,174.6359447,3.335495204,287.0513033,0.72719746,0.972645879,236.6402588
UK,Leeds,32630,A647 Bradford Road Cycle Superhighway (westbound),2021,38,53.80304,-1.6975,728,31,54,3.483870968,5495.76,101.7733333,2.709677419,25,3465.914,32,108.3098125,1.028249907,20,4,177,71,0,7,2,1,1030.659562,0.513165839,0.239765896,172.6559633,3.675605952,287.2350559,0.737296798,0.987679937,255.7420807
UK,Leeds,32630,B6381 Leeds Old Road Cycle Superhighway E/B,2021,38,53.80018,-1.71306,236,41,90,4.390243902,9545.391,106.0599,2.634146341,33,4842.103,46,105.2631087,1.132782465,32,1,103,181,0,6,1,1,895.9160738,0.224337155,0.148602263,185.5833333,3.838462752,286.4189453,0.346362673,0.828967494,1478.103638
UK,Leeds,32630,B6381 Leeds Old Road Cycle Superhighway W/B,2021,38,53.80003,-1.71318,275,41,90,4.390243902,9545.391,106.0599,2.634146341,33,4842.103,46,105.2631087,1.132782465,32,1,180,57,0,6,1,1,908.6886364,0.226687059,0.14523454,185.6803653,3.818738687,286.4311144,0.329873256,0.813902512,1478.103638
UK,Leeds,32630,Valley Road Bradford Cycle Lane,2021,38,53.8032,-1.75564,1121,19,36,3.789473684,3212.836,89.24544444,2.473684211,14,1665.86,19,87.67684211,1.000263828,14,0,163,188,0,4,0,1,508.0787223,0.210495237,0.158161456,99.71232877,7.102278467,286.1912457,0.585008922,0.714791846,411.0057983
UK,Leeds,32630,Kirkstall Forge Canal Towpath Cycle Counter,2021,38,53.82305,-1.62262,2163,8,14,3.5,2637.456,188.3897143,2.75,7,1318.728,7,188.3897143,1.014726956,7,0,76,76,0,1,0,0,504.4784311,0.508329165,0.14165757,56.28703704,14.80681207,284.1122323,0.98143463,0.61049051,55.10913086
UK,Leeds,32630,Cardigan Lane Cycle Counter,2021,38,53.81308,-1.57279,635,138,345,5,17868.102,51.7916,2.753623188,109,8976.48,173,51.88716763,1.013280176,85,24,0,84,0,9,6,4,112.1865907,0.29050673,0.163174384,67.35648148,5.756458099,288.7498192,0.711152355,0.766662697,2157.453369
UK,Leeds,32630,Stanningley Road Cycle Superhighway (westbound),2021,38,53.8056,-1.62862,890,72,158,4.388888889,10501.656,66.46617722,2.319444444,47,5250.828,79,66.46617722,1.075623364,46,1,166,100,1,8,3,1,997.2701558,0.370412102,0.157809207,119.5211268,5.121598805,287.4084874,0.48299721,0.817468773,695.2364502
UK,Leeds,32630,Canal Tow Path Armley Mills,2021,38,53.80195,-1.57874,4283,26,48,3.692307692,4431.273,92.3181875,2.653846154,19,2465.42,28,88.05071429,1.059502663,15,3,48,64,1,3,0,0,531.5130184,0.286329955,0.184245769,41.82272727,8.265505089,287.7257457,1.068212422,0.660570276,155.8817444
UK,Leeds,32630,Wellington Road Cycle Path,2021,38,53.79572,-1.56364,1835,32,45,2.8125,6836.351,151.9189111,2.84375,29,5254.016,39,134.718359,1.112394811,24,3,162,72,0,4,1,0,1246.5274,0.274965517,0.156371444,34.48181818,1.881642504,286.4193004,1.183438837,0.697988376,345.3216858
UK,Leeds,32630,Armley Road Cycle Superhighway,2021,38,53.7974,-1.57291,1621,12,18,3,3613.233,200.7351667,3,11,2547.321,14,181.9515,1.030262569,9,2,79,198,3,3,2,1,1012.291794,0.314095254,0.222787236,46.77570093,5.385700019,288.3600321,0.597610664,0.665507982,101.6895828
UK,Leeds,32630,Wellington Street Eastbound Cycle Lane,2021,38,53.79684,-1.55596,1905,56,97,3.464285714,8442.499,87.03607216,2.821428571,47,6319.467,69,91.58647826,1.029116766,37,9,175,79,3,8,22,3,2493.777511,0.16792667,0.11602298,35.78082192,3.409280547,286.9062678,0.684904727,0.534080412,207.6650848
UK,Leeds,32630,Wellington Street Westbound Cycle Lane,2021,38,53.79673,-1.55618,1862,52,89,3.423076923,8090.422,90.90361798,2.884615385,45,6069.276,64,94.8324375,1.030353643,35,9,175,54,3,7,19,2,2431.446707,0.165223351,0.113839713,35.49315068,3.459313236,286.8311929,0.673660818,0.476464984,158.2697144
UK,Leeds,32630,Meanwood Road Cycle Path,2021,38,53.81519,-1.54569,310,56,112,4,8486.26,75.77017857,2.339285714,37,4243.13,56,75.77017857,1.023798872,36,1,70,31,0,6,2,1,553.564586,0.398239455,0.188089774,49.51388889,7.984347631,287.7930049,0.824732937,0.814154961,624.0726318
UK,Leeds,32630,Meanwood Road Cycle Counter Sheepscar,2021,38,53.80798,-1.53653,1756,71,116,3.267605634,8714.68,75.12655172,2.985915493,62,7107.599,94,75.61275532,1.026370886,46,15,31,55,0,5,2,1,2340.108741,0.324887645,0.189674311,38.96313364,4.950308406,288.5587198,0.718427462,0.736284,282.3204041
UK,Leeds,32630,A6120 Ring Road Cycle Superhighway (e of king lane),2021,38,53.84784,-1.54284,230,47,92,3.914893617,10772.725,117.094837,2.70212766,38,6428.954,53,121.3010189,1.05004026,34,4,100,204,0,2,0,0,678.586401,0.554123322,0.120435622,138.8139535,4.162154037,284.9316497,0.490376139,0.692875575,486.2281799
UK,Leeds,32630,A6120 Ring Road Cycle Superhighway (w of birchwood hill),2021,38,53.84955,-1.51445,237,44,98,4.454545455,10198.387,104.0651735,2.681818182,36,5149.818,51,100.9768235,1.01185734,34,2,0,71,0,4,0,0,796.0199009,0.490511876,0.137830269,140.0934579,5.001929927,286.3376898,0.475987297,0.789792581,482.9050903
UK,Leeds,32630,A6120 Ring Road Cycle Superhighway (e of roundhay park lane),2021,38,53.84811,-1.4979,188,21,38,3.619047619,5975.261,157.2437105,3.047619048,19,3420.57,28,122.1632143,1.021415909,14,5,69,21,0,1,0,0,648.4989877,0.603278086,0.102466525,117.65,4.819491674,284.7648615,0.53131167,0.730663452,37.9468689
UK,Leeds,32630,Wykebeck Woods Cycle Path,2021,38,53.82922,-1.48842,297,18,36,4,6294.674,174.8520556,2.5,13,3147.337,18,174.8520556,1.035582113,12,1,180,31,0,3,0,0,703.2886615,0.600809723,0.11741141,78.88073394,6.515647743,285.6276878,0.537371974,0.789683602,116.563942
UK,Leeds,32630,A64 York Road Cycle Superhighway (killingbeck eastbound),2021,38,53.80683,-1.47273,570,49,92,3.755102041,6662.307,72.41638043,2.87755102,41,4212.829,62,67.94885484,1.095807872,29,11,180,31,0,3,1,0,1455.087825,0.422752167,0.186150888,70.41363636,3.602624732,285.5635298,0.460886173,0.962418786,166.3529205
UK,Leeds,32630,A64 York Road Cycle Superhighway (killingbeck westbound),2021,38,53.80694,-1.47039,920,29,57,3.931034483,5202.357,91.26942105,3.034482759,24,3397.555,37,91.82581081,1.127233898,14,9,177,0,0,5,3,1,1511.060953,0.340485133,0.16291389,71.75586854,2.095496136,285.3264378,0.521642377,0.887168949,223.4064789
UK,Leeds,32630,Hunslet Road Cycle Counter,2021,38,53.78574,-1.53265,415,75,124,3.306666667,7950.271,64.11508871,2.813333333,63,5773.017,94,61.41507447,1.028285175,51,11,208,91,0,5,2,1,1580.956756,0.144112452,0.112509015,29.73394495,1.956603506,288.9271431,0.498767165,0.503924707,109.424614
UK,Leeds,32630,Regent Street Cycle Counter (s of gower street),2021,38,53.80056,-1.53377,2347,106,176,3.320754717,12828.677,72.89021023,2.952830189,99,10714.109,136,78.78021324,1.029016255,84,12,174,75,12,2,3,1,1743.456316,0.177472684,0.148335532,36.31506849,3.608247955,288.3139269,1.243353207,0.583151203,311.0217285
UK,Leeds,32630,Regent Street Cycle Counter (s of hope road),2021,38,53.80125,-1.53322,2308,98,169,3.448979592,12948.594,76.61889941,3,92,10257.092,124,82.71848387,1.016768112,74,15,157,0,13,2,3,2,1219.574079,0.185359003,0.154057361,36.05045872,3.667639889,288.6554616,1.213179533,0.600998096,592.5383911
UK,Leeds,32630,A64 York Road Cycle Superhighway (burmantofts eastbound),2021,38,53.79774,-1.51583,528,46,94,4.086956522,4650.846,49.47708511,2.108695652,25,2325.423,47,49.47708511,1.064803187,24,1,64,31,0,4,1,1,2098.794273,0.37270614,0.193600236,65.00458716,4.042773263,289.0793435,0.630855218,0.780526195,810.3441772
UK,Leeds,32630,A64 York Road Cycle Superhighway (burmantofts westbound),2021,38,53.79745,-1.51583,1430,40,78,3.9,6929.822,88.84387179,2.75,33,4887.422,45,108.6093778,1.025195206,29,4,64,31,0,4,1,2,2109.538166,0.372727883,0.196304289,65.33333333,3.692932078,289.179634,0.573180209,0.780076573,704.317627
UK,Leeds,32630,St Peters Street Cycle Lane,2021,38,53.79738,-1.5346,2640,115,180,3.130434783,10416.481,57.86933889,2.982608696,105,9164.223,153,59.89688235,1.019556167,79,19,84,82,10,46,18,3,2712.839044,0.185704185,0.139889335,35.28310502,4.0905546,287.4470783,0.668374495,0.558704356,264.389801
UK,Leeds,32630,Marsh Lane Cycle Route,2021,38,53.7974,-1.52918,2601,101,173,3.425742574,10528.846,60.8603815,2.96039604,84,8352.038,132,63.27301515,1.013327118,57,21,79,82,0,3,3,0,1743.506807,0.28358861,0.164326871,39.31944444,4.803046069,287.5926649,0.589018767,0.7292214,679.2138672
UK,Leeds,32630,Castleford Methley Bridge Cycle Way,2021,38,53.7259,-1.38288,998,12,24,4,2166.234,90.25975,2.833333333,11,1083.117,12,90.25975,1.017593293,11,0,210,204,0,0,0,0,732.5871165,0.54271957,0.183099468,14.99086758,2.917418743,285.9860338,0.714961972,0.781689454,124.2960052
UK,Leeds,32630,Castleford Greenway Cycle Counter,2021,38,53.72151,-1.37973,514,18,44,4.888888889,4772.548,108.467,2.777777778,16,2386.274,22,108.467,1.059286793,16,0,188,181,0,0,0,0,782.9890694,0.436985859,0.144292274,29.87671233,5.486251489,285.9783818,0.726787627,0.877942352,231.2404633
UK,Leeds,32630,Castleford Greenway (Phase 4) ,2021,38,53.72644,-1.40991,273,0,0,0,0,0,0,0,0,0,0,0,0,0,88,89,0,0,0,0,499.5975301,0.614784443,0.165181909,14.20547945,4.532859946,284.7839969,0.353845484,0.788656097,19.80271339
UK,Leeds,32630,Huddersfield Narrow Canal Towpath,2021,38,53.63892,-1.81827,926,21,44,4.19047619,8526.922,193.7936818,2.666666667,17,4263.461,22,193.7936818,1.080896574,16,1,207,203,0,4,0,0,499.0563193,0.374370921,0.200787265,103.9166667,19.2178664,283.7798394,1.756253024,0.794151899,241.8171844
UK,Birmingham,32630,PERSHORE ROAD,2015,38,52.46084539,-1.902391464,609,40,80,4,8091.14,101.13925,2.375,26,4045.57,40,101.13925,1.061823012,23,3,56,127,1,7,0,0,284.0002868,0.588728194,0.179383057,115.8219178,2.959432559,290.3485124,0.346892177,0.919532436,448.7207642
UK,Birmingham,32630,BIRMINGHAM AND FAZELEY CANAL,2015,38,52.49695484,-1.879333372,1048,12,21,3.5,4462.633,212.5063333,3.083333333,11,2290.285,12,190.8570833,1.009406694,8,3,203,95,1,5,2,1,28.35860815,0.200459046,0.1823376,102.6392694,3.214196735,291.4475956,0.424671913,0.627554101,103.1347504
UK,Birmingham,32630,REA VALLEY CYCLEWAY,2015,38,52.44673749,-1.91051463,3279,15,32,4.266666667,3860.874,120.6523125,2.6,11,1930.437,16,120.6523125,1.013745475,9,2,176,164,0,2,2,1,775.7960508,0.601221689,0.168245975,120.059633,3.546690388,289.0331494,0.988127565,0.761977022,225.8180695
UK,Birmingham,32630,ELMSTEAD AVENUE,2015,38,52.4636722,-1.769063574,687,11,22,4,3201.278,145.5126364,2.636363636,8,1600.639,11,145.5126364,1.022324029,6,2,76,95,0,0,0,0,1107.591654,0.639745496,0.170062842,96.04090909,3.079722404,288.9083807,1.019884435,0.927087177,315.3184814
UK,Birmingham,32630,EBROOK ROAD,2015,38,52.55640941,-1.813372358,914,16,30,3.75,1202.356,40.07853333,2.125,9,601.178,15,40.07853333,1.066039565,9,0,207,176,0,0,0,0,1351.440247,0.596825873,0.141940739,107.206422,2.143596191,287.3966815,0.809745686,0.912190226,321.98526
UK,Birmingham,32630,HAZELWELL ROAD,2015,38,52.42689285,-1.918010899,1524,12,24,4,2781.866,115.9110833,2.5,9,1390.933,12,115.9110833,1.040485326,9,0,142,101,0,0,0,0,573.0877168,0.475848801,0.224395283,127.9036697,2.965379027,291.8221223,0.906676829,0.987705206,428.5581665
UK,Birmingham,32630,WYLDE GREEN ROAD,2015,38,52.54263132,-1.807224588,851,3,6,4,1288.46,214.7433333,3,3,644.23,3,214.7433333,1.222652584,3,0,234,178,0,0,0,0,851.1421701,0.718349161,0.077786313,102.2139535,5.25983382,287.0614281,0.661050336,0.804580514,58.69862747
UK,Birmingham,32630,BIRMINGHAM AND WARWICK CANAL,2015,38,52.54263132,-1.863416354,353,45,89,3.955555556,6957.441,78.17349438,2.533333333,33,4072.946,48,84.85304167,1.078341077,30,3,246,154,0,7,0,1,497.9138022,0.512702822,0.160173615,120.1513761,2.928822749,289.518707,0.303822579,0.970613334,689.3464355
UK,Birmingham,32630,WORCESTER AND BIRMINGHAM CANAL,2015,38,52.4724676,-1.911522653,2110,64,124,3.875,10762.167,86.79166935,2.8125,53,6569.534,76,86.44123684,1.034763485,40,10,0,0,5,5,1,1,130.5659295,0.310961229,0.20839149,146.0610329,4.453308404,289.5731184,1.272525626,0.662278397,1065.863159
UK,Birmingham,32630,BIRMINGHAM CANAL,2015,38,52.4812145,-1.924138761,201,38,67,3.526315789,7442.523,111.0824328,2.631578947,30,4522.44,38,119.0115789,1.081141521,28,2,115,270,1,4,0,0,712.3788301,0.457759597,0.184622204,142.0046948,4.196463582,291.2512471,0.541152254,0.770678727,559.2295532
UK,Birmingham,32630,BIRMINGHAM CANAL,2015,38,52.47913508,-1.919872486,1648,54,105,3.888888889,7662.634,72.97746667,2.203703704,33,3870.765,53,73.03330189,1.095488965,28,2,120,164,1,2,3,2,1396.527149,0.367108051,0.21246771,141.3027523,4.804440964,291.5171122,0.448503006,0.879147134,937.6034546
